{
"type": "FeatureCollection",
"name": "pop",
"features": [
{ "type": "Feature", "id": 1, "properties": { "city": "Tokyo", "city_ascii": "Tokyo", "lat": 35.685, "lng": 139.7514, "country": "Japan", "iso2": "JP", "iso3": "JPN", "admin_name": "Tōkyō", "capital": "primary", "population": 35676000.0, "id": 1392685764 }, "geometry": { "type": "Point", "coordinates": [ 139.7514, 35.685 ] } },
{ "type": "Feature", "id": 2, "properties": { "city": "New York", "city_ascii": "New York", "lat": 40.6943, "lng": -73.9249, "country": "United States", "iso2": "US", "iso3": "USA", "admin_name": "New York", "capital": "", "population": 19354922.0, "id": 1840034016 }, "geometry": { "type": "Point", "coordinates": [ -73.9249, 40.6943 ] } },
{ "type": "Feature", "id": 3, "properties": { "city": "Mexico City", "city_ascii": "Mexico City", "lat": 19.4424, "lng": -99.131, "country": "Mexico", "iso2": "MX", "iso3": "MEX", "admin_name": "Ciudad de México", "capital": "primary", "population": 19028000.0, "id": 1484247881 }, "geometry": { "type": "Point", "coordinates": [ -99.131, 19.4424 ] } },
{ "type": "Feature", "id": 4, "properties": { "city": "Mumbai", "city_ascii": "Mumbai", "lat": 19.017, "lng": 72.857, "country": "India", "iso2": "IN", "iso3": "IND", "admin_name": "Mahārāshtra", "capital": "admin", "population": 18978000.0, "id": 1356226629 }, "geometry": { "type": "Point", "coordinates": [ 72.857, 19.017 ] } },
{ "type": "Feature", "id": 5, "properties": { "city": "São Paulo", "city_ascii": "Sao Paulo", "lat": -23.5587, "lng": -46.625, "country": "Brazil", "iso2": "BR", "iso3": "BRA", "admin_name": "São Paulo", "capital": "admin", "population": 18845000.0, "id": 1076532519 }, "geometry": { "type": "Point", "coordinates": [ -46.625, -23.5587 ] } },
{ "type": "Feature", "id": 6, "properties": { "city": "Delhi", "city_ascii": "Delhi", "lat": 28.67, "lng": 77.23, "country": "India", "iso2": "IN", "iso3": "IND", "admin_name": "Delhi", "capital": "admin", "population": 15926000.0, "id": 1356872604 }, "geometry": { "type": "Point", "coordinates": [ 77.23, 28.67 ] } },
{ "type": "Feature", "id": 7, "properties": { "city": "Shanghai", "city_ascii": "Shanghai", "lat": 31.2165, "lng": 121.4365, "country": "China", "iso2": "CN", "iso3": "CHN", "admin_name": "Shanghai", "capital": "admin", "population": 14987000.0, "id": 1156073548 }, "geometry": { "type": "Point", "coordinates": [ 121.4365, 31.2165 ] } },
{ "type": "Feature", "id": 8, "properties": { "city": "Kolkata", "city_ascii": "Kolkata", "lat": 22.495, "lng": 88.3247, "country": "India", "iso2": "IN", "iso3": "IND", "admin_name": "West Bengal", "capital": "admin", "population": 14787000.0, "id": 1356060520 }, "geometry": { "type": "Point", "coordinates": [ 88.3247, 22.495 ] } },
{ "type": "Feature", "id": 9, "properties": { "city": "Los Angeles", "city_ascii": "Los Angeles", "lat": 34.1139, "lng": -118.4068, "country": "United States", "iso2": "US", "iso3": "USA", "admin_name": "California", "capital": "", "population": 12815475.0, "id": 1840020491 }, "geometry": { "type": "Point", "coordinates": [ -118.4068, 34.1139 ] } },
{ "type": "Feature", "id": 10, "properties": { "city": "Dhaka", "city_ascii": "Dhaka", "lat": 23.7231, "lng": 90.4086, "country": "Bangladesh", "iso2": "BD", "iso3": "BGD", "admin_name": "Dhaka", "capital": "primary", "population": 12797394.0, "id": 1050529279 }, "geometry": { "type": "Point", "coordinates": [ 90.4086, 23.7231 ] } },
{ "type": "Feature", "id": 11, "properties": { "city": "Buenos Aires", "city_ascii": "Buenos Aires", "lat": -34.6025, "lng": -58.3975, "country": "Argentina", "iso2": "AR", "iso3": "ARG", "admin_name": "Buenos Aires, Ciudad Autónoma de", "capital": "primary", "population": 12795000.0, "id": 1032717330 }, "geometry": { "type": "Point", "coordinates": [ -58.3975, -34.6025 ] } },
{ "type": "Feature", "id": 12, "properties": { "city": "Karachi", "city_ascii": "Karachi", "lat": 24.87, "lng": 66.99, "country": "Pakistan", "iso2": "PK", "iso3": "PAK", "admin_name": "Sindh", "capital": "admin", "population": 12130000.0, "id": 1586129469 }, "geometry": { "type": "Point", "coordinates": [ 66.99, 24.87 ] } },
{ "type": "Feature", "id": 13, "properties": { "city": "Cairo", "city_ascii": "Cairo", "lat": 30.05, "lng": 31.25, "country": "Egypt", "iso2": "EG", "iso3": "EGY", "admin_name": "Al Qāhirah", "capital": "primary", "population": 11893000.0, "id": 1818253931 }, "geometry": { "type": "Point", "coordinates": [ 31.25, 30.05 ] } },
{ "type": "Feature", "id": 14, "properties": { "city": "Rio de Janeiro", "city_ascii": "Rio de Janeiro", "lat": -22.925, "lng": -43.225, "country": "Brazil", "iso2": "BR", "iso3": "BRA", "admin_name": "Rio de Janeiro", "capital": "admin", "population": 11748000.0, "id": 1076887657 }, "geometry": { "type": "Point", "coordinates": [ -43.225, -22.925 ] } },
{ "type": "Feature", "id": 15, "properties": { "city": "Ōsaka", "city_ascii": "Osaka", "lat": 34.75, "lng": 135.4601, "country": "Japan", "iso2": "JP", "iso3": "JPN", "admin_name": "Ōsaka", "capital": "admin", "population": 11294000.0, "id": 1392419823 }, "geometry": { "type": "Point", "coordinates": [ 135.4601, 34.75 ] } },
{ "type": "Feature", "id": 16, "properties": { "city": "Beijing", "city_ascii": "Beijing", "lat": 39.9289, "lng": 116.3883, "country": "China", "iso2": "CN", "iso3": "CHN", "admin_name": "Beijing", "capital": "primary", "population": 11106000.0, "id": 1156228865 }, "geometry": { "type": "Point", "coordinates": [ 116.3883, 39.9289 ] } },
{ "type": "Feature", "id": 17, "properties": { "city": "Manila", "city_ascii": "Manila", "lat": 14.6042, "lng": 120.9822, "country": "Philippines", "iso2": "PH", "iso3": "PHL", "admin_name": "Manila", "capital": "primary", "population": 11100000.0, "id": 1608618140 }, "geometry": { "type": "Point", "coordinates": [ 120.9822, 14.6042 ] } },
{ "type": "Feature", "id": 18, "properties": { "city": "Moscow", "city_ascii": "Moscow", "lat": 55.7522, "lng": 37.6155, "country": "Russia", "iso2": "RU", "iso3": "RUS", "admin_name": "Moskva", "capital": "primary", "population": 10452000.0, "id": 1643318494 }, "geometry": { "type": "Point", "coordinates": [ 37.6155, 55.7522 ] } },
{ "type": "Feature", "id": 19, "properties": { "city": "Istanbul", "city_ascii": "Istanbul", "lat": 41.105, "lng": 29.01, "country": "Turkey", "iso2": "TR", "iso3": "TUR", "admin_name": "İstanbul", "capital": "admin", "population": 10061000.0, "id": 1792756324 }, "geometry": { "type": "Point", "coordinates": [ 29.01, 41.105 ] } },
{ "type": "Feature", "id": 20, "properties": { "city": "Paris", "city_ascii": "Paris", "lat": 48.8667, "lng": 2.3333, "country": "France", "iso2": "FR", "iso3": "FRA", "admin_name": "Île-de-France", "capital": "primary", "population": 9904000.0, "id": 1250015082 }, "geometry": { "type": "Point", "coordinates": [ 2.3333, 48.8667 ] } },
{ "type": "Feature", "id": 21, "properties": { "city": "Seoul", "city_ascii": "Seoul", "lat": 37.5663, "lng": 126.9997, "country": "Korea, South", "iso2": "KR", "iso3": "KOR", "admin_name": "Seoul", "capital": "primary", "population": 9796000.0, "id": 1410836482 }, "geometry": { "type": "Point", "coordinates": [ 126.9997, 37.5663 ] } },
{ "type": "Feature", "id": 22, "properties": { "city": "Lagos", "city_ascii": "Lagos", "lat": 6.4433, "lng": 3.3915, "country": "Nigeria", "iso2": "NG", "iso3": "NGA", "admin_name": "Lagos", "capital": "minor", "population": 9466000.0, "id": 1566593751 }, "geometry": { "type": "Point", "coordinates": [ 3.3915, 6.4433 ] } },
{ "type": "Feature", "id": 23, "properties": { "city": "Jakarta", "city_ascii": "Jakarta", "lat": -6.1744, "lng": 106.8294, "country": "Indonesia", "iso2": "ID", "iso3": "IDN", "admin_name": "Jakarta", "capital": "primary", "population": 9125000.0, "id": 1360771077 }, "geometry": { "type": "Point", "coordinates": [ 106.8294, -6.1744 ] } },
{ "type": "Feature", "id": 24, "properties": { "city": "Guangzhou", "city_ascii": "Guangzhou", "lat": 23.145, "lng": 113.325, "country": "China", "iso2": "CN", "iso3": "CHN", "admin_name": "Guangdong", "capital": "admin", "population": 8829000.0, "id": 1156237133 }, "geometry": { "type": "Point", "coordinates": [ 113.325, 23.145 ] } },
{ "type": "Feature", "id": 25, "properties": { "city": "Chicago", "city_ascii": "Chicago", "lat": 41.8373, "lng": -87.6862, "country": "United States", "iso2": "US", "iso3": "USA", "admin_name": "Illinois", "capital": "", "population": 8675982.0, "id": 1840000494 }, "geometry": { "type": "Point", "coordinates": [ -87.6862, 41.8373 ] } },
{ "type": "Feature", "id": 26, "properties": { "city": "London", "city_ascii": "London", "lat": 51.5, "lng": -0.1167, "country": "United Kingdom", "iso2": "GB", "iso3": "GBR", "admin_name": "London, City of", "capital": "primary", "population": 8567000.0, "id": 1826645935 }, "geometry": { "type": "Point", "coordinates": [ -0.1167, 51.5 ] } },
{ "type": "Feature", "id": 27, "properties": { "city": "Lima", "city_ascii": "Lima", "lat": -12.048, "lng": -77.0501, "country": "Peru", "iso2": "PE", "iso3": "PER", "admin_name": "Lima", "capital": "primary", "population": 8012000.0, "id": 1604728603 }, "geometry": { "type": "Point", "coordinates": [ -77.0501, -12.048 ] } },
{ "type": "Feature", "id": 28, "properties": { "city": "Tehran", "city_ascii": "Tehran", "lat": 35.6719, "lng": 51.4243, "country": "Iran", "iso2": "IR", "iso3": "IRN", "admin_name": "Tehrān", "capital": "primary", "population": 7873000.0, "id": 1364305026 }, "geometry": { "type": "Point", "coordinates": [ 51.4243, 35.6719 ] } },
{ "type": "Feature", "id": 29, "properties": { "city": "Kinshasa", "city_ascii": "Kinshasa", "lat": -4.3297, "lng": 15.315, "country": "Congo (Kinshasa)", "iso2": "CD", "iso3": "COD", "admin_name": "Kinshasa", "capital": "primary", "population": 7843000.0, "id": 1180000363 }, "geometry": { "type": "Point", "coordinates": [ 15.315, -4.3297 ] } },
{ "type": "Feature", "id": 30, "properties": { "city": "Bogotá", "city_ascii": "Bogota", "lat": 4.5964, "lng": -74.0833, "country": "Colombia", "iso2": "CO", "iso3": "COL", "admin_name": "Bogotá", "capital": "primary", "population": 7772000.0, "id": 1170483426 }, "geometry": { "type": "Point", "coordinates": [ -74.0833, 4.5964 ] } },
{ "type": "Feature", "id": 31, "properties": { "city": "Shenzhen", "city_ascii": "Shenzhen", "lat": 22.5524, "lng": 114.1221, "country": "China", "iso2": "CN", "iso3": "CHN", "admin_name": "Guangdong", "capital": "minor", "population": 7581000.0, "id": 1156158707 }, "geometry": { "type": "Point", "coordinates": [ 114.1221, 22.5524 ] } },
{ "type": "Feature", "id": 32, "properties": { "city": "Wuhan", "city_ascii": "Wuhan", "lat": 30.58, "lng": 114.27, "country": "China", "iso2": "CN", "iso3": "CHN", "admin_name": "Hubei", "capital": "admin", "population": 7243000.0, "id": 1156117184 }, "geometry": { "type": "Point", "coordinates": [ 114.27, 30.58 ] } },
{ "type": "Feature", "id": 33, "properties": { "city": "Hong Kong", "city_ascii": "Hong Kong", "lat": 22.305, "lng": 114.185, "country": "Hong Kong", "iso2": "HK", "iso3": "HKG", "admin_name": "", "capital": "", "population": 7206000.0, "id": 1344982653 }, "geometry": { "type": "Point", "coordinates": [ 114.185, 22.305 ] } },
{ "type": "Feature", "id": 34, "properties": { "city": "Tianjin", "city_ascii": "Tianjin", "lat": 39.13, "lng": 117.2, "country": "China", "iso2": "CN", "iso3": "CHN", "admin_name": "Tianjin", "capital": "admin", "population": 7180000.0, "id": 1156174046 }, "geometry": { "type": "Point", "coordinates": [ 117.2, 39.13 ] } },
{ "type": "Feature", "id": 35, "properties": { "city": "Chennai", "city_ascii": "Chennai", "lat": 13.09, "lng": 80.28, "country": "India", "iso2": "IN", "iso3": "IND", "admin_name": "Tamil Nādu ", "capital": "admin", "population": 7163000.0, "id": 1356374944 }, "geometry": { "type": "Point", "coordinates": [ 80.28, 13.09 ] } },
{ "type": "Feature", "id": 36, "properties": { "city": "Taipei", "city_ascii": "Taipei", "lat": 25.0358, "lng": 121.5683, "country": "Taiwan", "iso2": "TW", "iso3": "TWN", "admin_name": "Taipei", "capital": "primary", "population": 6900273.0, "id": 1158881289 }, "geometry": { "type": "Point", "coordinates": [ 121.5683, 25.0358 ] } },
{ "type": "Feature", "id": 37, "properties": { "city": "Bengalūru", "city_ascii": "Bengaluru", "lat": 12.97, "lng": 77.56, "country": "India", "iso2": "IN", "iso3": "IND", "admin_name": "Karnātaka", "capital": "admin", "population": 6787000.0, "id": 1356410365 }, "geometry": { "type": "Point", "coordinates": [ 77.56, 12.97 ] } },
{ "type": "Feature", "id": 38, "properties": { "city": "Bangkok", "city_ascii": "Bangkok", "lat": 13.75, "lng": 100.5166, "country": "Thailand", "iso2": "TH", "iso3": "THA", "admin_name": "Krung Thep Maha Nakhon", "capital": "primary", "population": 6704000.0, "id": 1764068610 }, "geometry": { "type": "Point", "coordinates": [ 100.5166, 13.75 ] } },
{ "type": "Feature", "id": 39, "properties": { "city": "Lahore", "city_ascii": "Lahore", "lat": 31.56, "lng": 74.35, "country": "Pakistan", "iso2": "PK", "iso3": "PAK", "admin_name": "Punjab", "capital": "admin", "population": 6577000.0, "id": 1586801463 }, "geometry": { "type": "Point", "coordinates": [ 74.35, 31.56 ] } },
{ "type": "Feature", "id": 40, "properties": { "city": "Chongqing", "city_ascii": "Chongqing", "lat": 29.565, "lng": 106.595, "country": "China", "iso2": "CN", "iso3": "CHN", "admin_name": "Chongqing", "capital": "admin", "population": 6461000.0, "id": 1156936556 }, "geometry": { "type": "Point", "coordinates": [ 106.595, 29.565 ] } },
{ "type": "Feature", "id": 41, "properties": { "city": "Miami", "city_ascii": "Miami", "lat": 25.7839, "lng": -80.2102, "country": "United States", "iso2": "US", "iso3": "USA", "admin_name": "Florida", "capital": "", "population": 6381966.0, "id": 1840015149 }, "geometry": { "type": "Point", "coordinates": [ -80.2102, 25.7839 ] } },
{ "type": "Feature", "id": 42, "properties": { "city": "Hyderabad", "city_ascii": "Hyderabad", "lat": 17.4, "lng": 78.48, "country": "India", "iso2": "IN", "iso3": "IND", "admin_name": "Telangana", "capital": "admin", "population": 6376000.0, "id": 1356871768 }, "geometry": { "type": "Point", "coordinates": [ 78.48, 17.4 ] } },
{ "type": "Feature", "id": 43, "properties": { "city": "Dallas", "city_ascii": "Dallas", "lat": 32.7936, "lng": -96.7662, "country": "United States", "iso2": "US", "iso3": "USA", "admin_name": "Texas", "capital": "", "population": 5733259.0, "id": 1840019440 }, "geometry": { "type": "Point", "coordinates": [ -96.7662, 32.7936 ] } },
{ "type": "Feature", "id": 44, "properties": { "city": "Santiago", "city_ascii": "Santiago", "lat": -33.45, "lng": -70.667, "country": "Chile", "iso2": "CL", "iso3": "CHL", "admin_name": "Región Metropolitana", "capital": "primary", "population": 5720000.0, "id": 1152554349 }, "geometry": { "type": "Point", "coordinates": [ -70.667, -33.45 ] } },
{ "type": "Feature", "id": 45, "properties": { "city": "Philadelphia", "city_ascii": "Philadelphia", "lat": 40.0077, "lng": -75.1339, "country": "United States", "iso2": "US", "iso3": "USA", "admin_name": "Pennsylvania", "capital": "", "population": 5637884.0, "id": 1840000673 }, "geometry": { "type": "Point", "coordinates": [ -75.1339, 40.0077 ] } },
{ "type": "Feature", "id": 46, "properties": { "city": "Belo Horizonte", "city_ascii": "Belo Horizonte", "lat": -19.915, "lng": -43.915, "country": "Brazil", "iso2": "BR", "iso3": "BRA", "admin_name": "Minas Gerais", "capital": "admin", "population": 5575000.0, "id": 1076967355 }, "geometry": { "type": "Point", "coordinates": [ -43.915, -19.915 ] } },
{ "type": "Feature", "id": 47, "properties": { "city": "Madrid", "city_ascii": "Madrid", "lat": 40.4, "lng": -3.6834, "country": "Spain", "iso2": "ES", "iso3": "ESP", "admin_name": "Madrid", "capital": "primary", "population": 5567000.0, "id": 1724616994 }, "geometry": { "type": "Point", "coordinates": [ -3.6834, 40.4 ] } },
{ "type": "Feature", "id": 48, "properties": { "city": "Houston", "city_ascii": "Houston", "lat": 29.7869, "lng": -95.3905, "country": "United States", "iso2": "US", "iso3": "USA", "admin_name": "Texas", "capital": "", "population": 5446468.0, "id": 1840020925 }, "geometry": { "type": "Point", "coordinates": [ -95.3905, 29.7869 ] } },
{ "type": "Feature", "id": 49, "properties": { "city": "Ahmadābād", "city_ascii": "Ahmadabad", "lat": 23.0301, "lng": 72.58, "country": "India", "iso2": "IN", "iso3": "IND", "admin_name": "Gujarāt", "capital": "minor", "population": 5375000.0, "id": 1356304381 }, "geometry": { "type": "Point", "coordinates": [ 72.58, 23.0301 ] } },
{ "type": "Feature", "id": 50, "properties": { "city": "Ho Chi Minh City", "city_ascii": "Ho Chi Minh City", "lat": 10.78, "lng": 106.695, "country": "Vietnam", "iso2": "VN", "iso3": "VNM", "admin_name": "Hồ Chí Minh", "capital": "admin", "population": 5314000.0, "id": 1704774326 }, "geometry": { "type": "Point", "coordinates": [ 106.695, 10.78 ] } },
{ "type": "Feature", "id": 51, "properties": { "city": "Washington", "city_ascii": "Washington", "lat": 38.9047, "lng": -77.0163, "country": "United States", "iso2": "US", "iso3": "USA", "admin_name": "District of Columbia", "capital": "primary", "population": 5289420.0, "id": 1840006060 }, "geometry": { "type": "Point", "coordinates": [ -77.0163, 38.9047 ] } },
{ "type": "Feature", "id": 52, "properties": { "city": "Atlanta", "city_ascii": "Atlanta", "lat": 33.7627, "lng": -84.4225, "country": "United States", "iso2": "US", "iso3": "USA", "admin_name": "Georgia", "capital": "admin", "population": 5228750.0, "id": 1840013660 }, "geometry": { "type": "Point", "coordinates": [ -84.4225, 33.7627 ] } },
{ "type": "Feature", "id": 53, "properties": { "city": "Toronto", "city_ascii": "Toronto", "lat": 43.7, "lng": -79.42, "country": "Canada", "iso2": "CA", "iso3": "CAN", "admin_name": "Ontario", "capital": "admin", "population": 5213000.0, "id": 1124279679 }, "geometry": { "type": "Point", "coordinates": [ -79.42, 43.7 ] } },
{ "type": "Feature", "id": 54, "properties": { "city": "Singapore", "city_ascii": "Singapore", "lat": 1.293, "lng": 103.8558, "country": "Singapore", "iso2": "SG", "iso3": "SGP", "admin_name": "", "capital": "primary", "population": 5183700.0, "id": 1702341327 }, "geometry": { "type": "Point", "coordinates": [ 103.8558, 1.293 ] } },
{ "type": "Feature", "id": 55, "properties": { "city": "Luanda", "city_ascii": "Luanda", "lat": -8.8383, "lng": 13.2344, "country": "Angola", "iso2": "AO", "iso3": "AGO", "admin_name": "Luanda", "capital": "primary", "population": 5172900.0, "id": 1024949724 }, "geometry": { "type": "Point", "coordinates": [ 13.2344, -8.8383 ] } },
{ "type": "Feature", "id": 56, "properties": { "city": "Baghdad", "city_ascii": "Baghdad", "lat": 33.3386, "lng": 44.3939, "country": "Iraq", "iso2": "IQ", "iso3": "IRQ", "admin_name": "Baghdād", "capital": "primary", "population": 5054000.0, "id": 1368596238 }, "geometry": { "type": "Point", "coordinates": [ 44.3939, 33.3386 ] } },
{ "type": "Feature", "id": 57, "properties": { "city": "Barcelona", "city_ascii": "Barcelona", "lat": 41.3833, "lng": 2.1834, "country": "Spain", "iso2": "ES", "iso3": "ESP", "admin_name": "Catalonia", "capital": "admin", "population": 4920000.0, "id": 1724594040 }, "geometry": { "type": "Point", "coordinates": [ 2.1834, 41.3833 ] } },
{ "type": "Feature", "id": 58, "properties": { "city": "Hāora", "city_ascii": "Haora", "lat": 22.5804, "lng": 88.3299, "country": "India", "iso2": "IN", "iso3": "IND", "admin_name": "West Bengal", "capital": "", "population": 4841638.0, "id": 1356986516 }, "geometry": { "type": "Point", "coordinates": [ 88.3299, 22.5804 ] } },
{ "type": "Feature", "id": 59, "properties": { "city": "Shenyang", "city_ascii": "Shenyang", "lat": 41.805, "lng": 123.45, "country": "China", "iso2": "CN", "iso3": "CHN", "admin_name": "Liaoning", "capital": "admin", "population": 4787000.0, "id": 1156309382 }, "geometry": { "type": "Point", "coordinates": [ 123.45, 41.805 ] } },
{ "type": "Feature", "id": 60, "properties": { "city": "Khartoum", "city_ascii": "Khartoum", "lat": 15.5881, "lng": 32.5342, "country": "Sudan", "iso2": "SD", "iso3": "SDN", "admin_name": "Khartoum", "capital": "primary", "population": 4754000.0, "id": 1729268475 }, "geometry": { "type": "Point", "coordinates": [ 32.5342, 15.5881 ] } },
{ "type": "Feature", "id": 61, "properties": { "city": "Pune", "city_ascii": "Pune", "lat": 18.53, "lng": 73.85, "country": "India", "iso2": "IN", "iso3": "IND", "admin_name": "Mahārāshtra", "capital": "", "population": 4672000.0, "id": 1356081074 }, "geometry": { "type": "Point", "coordinates": [ 73.85, 18.53 ] } },
{ "type": "Feature", "id": 62, "properties": { "city": "Boston", "city_ascii": "Boston", "lat": 42.3188, "lng": -71.0846, "country": "United States", "iso2": "US", "iso3": "USA", "admin_name": "Massachusetts", "capital": "admin", "population": 4637537.0, "id": 1840000455 }, "geometry": { "type": "Point", "coordinates": [ -71.0846, 42.3188 ] } },
{ "type": "Feature", "id": 63, "properties": { "city": "Sydney", "city_ascii": "Sydney", "lat": -33.92, "lng": 151.1852, "country": "Australia", "iso2": "AU", "iso3": "AUS", "admin_name": "New South Wales", "capital": "admin", "population": 4630000.0, "id": 1036074917 }, "geometry": { "type": "Point", "coordinates": [ 151.1852, -33.92 ] } },
{ "type": "Feature", "id": 64, "properties": { "city": "Saint Petersburg", "city_ascii": "Saint Petersburg", "lat": 59.939, "lng": 30.316, "country": "Russia", "iso2": "RU", "iso3": "RUS", "admin_name": "Sankt-Peterburg", "capital": "admin", "population": 4553000.0, "id": 1643616350 }, "geometry": { "type": "Point", "coordinates": [ 30.316, 59.939 ] } },
{ "type": "Feature", "id": 65, "properties": { "city": "Chittagong", "city_ascii": "Chittagong", "lat": 22.33, "lng": 91.8, "country": "Bangladesh", "iso2": "BD", "iso3": "BGD", "admin_name": "Chittagong", "capital": "admin", "population": 4529000.0, "id": 1050830722 }, "geometry": { "type": "Point", "coordinates": [ 91.8, 22.33 ] } },
{ "type": "Feature", "id": 66, "properties": { "city": "Dongguan", "city_ascii": "Dongguan", "lat": 23.0489, "lng": 113.7447, "country": "China", "iso2": "CN", "iso3": "CHN", "admin_name": "Guangdong", "capital": "minor", "population": 4528000.0, "id": 1156478242 }, "geometry": { "type": "Point", "coordinates": [ 113.7447, 23.0489 ] } },
{ "type": "Feature", "id": 67, "properties": { "city": "Riyadh", "city_ascii": "Riyadh", "lat": 24.6408, "lng": 46.7727, "country": "Saudi Arabia", "iso2": "SA", "iso3": "SAU", "admin_name": "Ar Riyāḑ", "capital": "primary", "population": 4465000.0, "id": 1682999334 }, "geometry": { "type": "Point", "coordinates": [ 46.7727, 24.6408 ] } },
{ "type": "Feature", "id": 68, "properties": { "city": "Hanoi", "city_ascii": "Hanoi", "lat": 21.0333, "lng": 105.85, "country": "Vietnam", "iso2": "VN", "iso3": "VNM", "admin_name": "Hà Nội", "capital": "primary", "population": 4378000.0, "id": 1704413791 }, "geometry": { "type": "Point", "coordinates": [ 105.85, 21.0333 ] } },
{ "type": "Feature", "id": 69, "properties": { "city": "Guadalajara", "city_ascii": "Guadalajara", "lat": 20.67, "lng": -103.33, "country": "Mexico", "iso2": "MX", "iso3": "MEX", "admin_name": "Jalisco", "capital": "admin", "population": 4198000.0, "id": 1484950208 }, "geometry": { "type": "Point", "coordinates": [ -103.33, 20.67 ] } },
{ "type": "Feature", "id": 70, "properties": { "city": "Melbourne", "city_ascii": "Melbourne", "lat": -37.82, "lng": 144.975, "country": "Australia", "iso2": "AU", "iso3": "AUS", "admin_name": "Victoria", "capital": "admin", "population": 4170000.0, "id": 1036533631 }, "geometry": { "type": "Point", "coordinates": [ 144.975, -37.82 ] } },
{ "type": "Feature", "id": 71, "properties": { "city": "Alexandria", "city_ascii": "Alexandria", "lat": 31.2, "lng": 29.95, "country": "Egypt", "iso2": "EG", "iso3": "EGY", "admin_name": "Al Iskandarīyah", "capital": "admin", "population": 4165000.0, "id": 1818695837 }, "geometry": { "type": "Point", "coordinates": [ 29.95, 31.2 ] } },
{ "type": "Feature", "id": 72, "properties": { "city": "Chengdu", "city_ascii": "Chengdu", "lat": 30.67, "lng": 104.07, "country": "China", "iso2": "CN", "iso3": "CHN", "admin_name": "Sichuan", "capital": "admin", "population": 4123000.0, "id": 1156421555 }, "geometry": { "type": "Point", "coordinates": [ 104.07, 30.67 ] } },
{ "type": "Feature", "id": 73, "properties": { "city": "Rangoon", "city_ascii": "Rangoon", "lat": 16.7834, "lng": 96.1667, "country": "Burma", "iso2": "MM", "iso3": "MMR", "admin_name": "Yangon", "capital": "primary", "population": 4088000.0, "id": 1104616656 }, "geometry": { "type": "Point", "coordinates": [ 96.1667, 16.7834 ] } },
{ "type": "Feature", "id": 74, "properties": { "city": "Phoenix", "city_ascii": "Phoenix", "lat": 33.5722, "lng": -112.0891, "country": "United States", "iso2": "US", "iso3": "USA", "admin_name": "Arizona", "capital": "admin", "population": 4081849.0, "id": 1840020568 }, "geometry": { "type": "Point", "coordinates": [ -112.0891, 33.5722 ] } },
{ "type": "Feature", "id": 75, "properties": { "city": "Xi’an", "city_ascii": "Xi'an", "lat": 34.275, "lng": 108.895, "country": "China", "iso2": "CN", "iso3": "CHN", "admin_name": "Shaanxi", "capital": "admin", "population": 4009000.0, "id": 1156244079 }, "geometry": { "type": "Point", "coordinates": [ 108.895, 34.275 ] } },
{ "type": "Feature", "id": 76, "properties": { "city": "Porto Alegre", "city_ascii": "Porto Alegre", "lat": -30.05, "lng": -51.2, "country": "Brazil", "iso2": "BR", "iso3": "BRA", "admin_name": "Rio Grande do Sul", "capital": "admin", "population": 3917000.0, "id": 1076658221 }, "geometry": { "type": "Point", "coordinates": [ -51.2, -30.05 ] } },
{ "type": "Feature", "id": 77, "properties": { "city": "Sūrat", "city_ascii": "Surat", "lat": 21.2, "lng": 72.84, "country": "India", "iso2": "IN", "iso3": "IND", "admin_name": "Gujarāt", "capital": "", "population": 3842000.0, "id": 1356758738 }, "geometry": { "type": "Point", "coordinates": [ 72.84, 21.2 ] } },
{ "type": "Feature", "id": 78, "properties": { "city": "Hechi", "city_ascii": "Hechi", "lat": 23.0965, "lng": 109.6091, "country": "China", "iso2": "CN", "iso3": "CHN", "admin_name": "Guangxi", "capital": "", "population": 3830000.0, "id": 1156868701 }, "geometry": { "type": "Point", "coordinates": [ 109.6091, 23.0965 ] } },
{ "type": "Feature", "id": 79, "properties": { "city": "Abidjan", "city_ascii": "Abidjan", "lat": 5.32, "lng": -4.04, "country": "Côte D’Ivoire", "iso2": "CI", "iso3": "CIV", "admin_name": "Abidjan", "capital": "primary", "population": 3802000.0, "id": 1384207980 }, "geometry": { "type": "Point", "coordinates": [ -4.04, 5.32 ] } },
{ "type": "Feature", "id": 80, "properties": { "city": "Brasília", "city_ascii": "Brasilia", "lat": -15.7833, "lng": -47.9161, "country": "Brazil", "iso2": "BR", "iso3": "BRA", "admin_name": "Distrito Federal", "capital": "primary", "population": 3716996.0, "id": 1076144436 }, "geometry": { "type": "Point", "coordinates": [ -47.9161, -15.7833 ] } },
{ "type": "Feature", "id": 81, "properties": { "city": "Ankara", "city_ascii": "Ankara", "lat": 39.9272, "lng": 32.8644, "country": "Turkey", "iso2": "TR", "iso3": "TUR", "admin_name": "Ankara", "capital": "primary", "population": 3716000.0, "id": 1792572891 }, "geometry": { "type": "Point", "coordinates": [ 32.8644, 39.9272 ] } },
{ "type": "Feature", "id": 82, "properties": { "city": "Monterrey", "city_ascii": "Monterrey", "lat": 25.67, "lng": -100.33, "country": "Mexico", "iso2": "MX", "iso3": "MEX", "admin_name": "Nuevo León", "capital": "admin", "population": 3712000.0, "id": 1484559591 }, "geometry": { "type": "Point", "coordinates": [ -100.33, 25.67 ] } },
{ "type": "Feature", "id": 83, "properties": { "city": "Yokohama", "city_ascii": "Yokohama", "lat": 35.32, "lng": 139.58, "country": "Japan", "iso2": "JP", "iso3": "JPN", "admin_name": "Kanagawa", "capital": "admin", "population": 3697894.0, "id": 1392118339 }, "geometry": { "type": "Point", "coordinates": [ 139.58, 35.32 ] } },
{ "type": "Feature", "id": 84, "properties": { "city": "Nanjing", "city_ascii": "Nanjing", "lat": 32.05, "lng": 118.78, "country": "China", "iso2": "CN", "iso3": "CHN", "admin_name": "Jiangsu", "capital": "admin", "population": 3679000.0, "id": 1156644065 }, "geometry": { "type": "Point", "coordinates": [ 118.78, 32.05 ] } },
{ "type": "Feature", "id": 85, "properties": { "city": "Montréal", "city_ascii": "Montreal", "lat": 45.5, "lng": -73.5833, "country": "Canada", "iso2": "CA", "iso3": "CAN", "admin_name": "Québec", "capital": "", "population": 3678000.0, "id": 1124586170 }, "geometry": { "type": "Point", "coordinates": [ -73.5833, 45.5 ] } },
{ "type": "Feature", "id": 86, "properties": { "city": "Guiyang", "city_ascii": "Guiyang", "lat": 26.58, "lng": 106.72, "country": "China", "iso2": "CN", "iso3": "CHN", "admin_name": "Guizhou", "capital": "admin", "population": 3662000.0, "id": 1156932620 }, "geometry": { "type": "Point", "coordinates": [ 106.72, 26.58 ] } },
{ "type": "Feature", "id": 87, "properties": { "city": "Recife", "city_ascii": "Recife", "lat": -8.0756, "lng": -34.9156, "country": "Brazil", "iso2": "BR", "iso3": "BRA", "admin_name": "Pernambuco", "capital": "admin", "population": 3651000.0, "id": 1076137337 }, "geometry": { "type": "Point", "coordinates": [ -34.9156, -8.0756 ] } },
{ "type": "Feature", "id": 88, "properties": { "city": "Seattle", "city_ascii": "Seattle", "lat": 47.6211, "lng": -122.3244, "country": "United States", "iso2": "US", "iso3": "USA", "admin_name": "Washington", "capital": "", "population": 3643765.0, "id": 1840021117 }, "geometry": { "type": "Point", "coordinates": [ -122.3244, 47.6211 ] } },
{ "type": "Feature", "id": 89, "properties": { "city": "Harbin", "city_ascii": "Harbin", "lat": 45.75, "lng": 126.65, "country": "China", "iso2": "CN", "iso3": "CHN", "admin_name": "Heilongjiang", "capital": "admin", "population": 3621000.0, "id": 1156241528 }, "geometry": { "type": "Point", "coordinates": [ 126.65, 45.75 ] } },
{ "type": "Feature", "id": 90, "properties": { "city": "San Francisco", "city_ascii": "San Francisco", "lat": 37.7562, "lng": -122.443, "country": "United States", "iso2": "US", "iso3": "USA", "admin_name": "California", "capital": "", "population": 3603761.0, "id": 1840021543 }, "geometry": { "type": "Point", "coordinates": [ -122.443, 37.7562 ] } },
{ "type": "Feature", "id": 91, "properties": { "city": "Fortaleza", "city_ascii": "Fortaleza", "lat": -3.75, "lng": -38.58, "country": "Brazil", "iso2": "BR", "iso3": "BRA", "admin_name": "Ceará", "capital": "admin", "population": 3602319.0, "id": 1076567885 }, "geometry": { "type": "Point", "coordinates": [ -38.58, -3.75 ] } },
{ "type": "Feature", "id": 92, "properties": { "city": "Zhangzhou", "city_ascii": "Zhangzhou", "lat": 24.5204, "lng": 117.67, "country": "China", "iso2": "CN", "iso3": "CHN", "admin_name": "Fujian", "capital": "minor", "population": 3531147.0, "id": 1156241637 }, "geometry": { "type": "Point", "coordinates": [ 117.67, 24.5204 ] } },
{ "type": "Feature", "id": 93, "properties": { "city": "Detroit", "city_ascii": "Detroit", "lat": 42.3834, "lng": -83.1024, "country": "United States", "iso2": "US", "iso3": "USA", "admin_name": "Michigan", "capital": "", "population": 3522206.0, "id": 1840003971 }, "geometry": { "type": "Point", "coordinates": [ -83.1024, 42.3834 ] } },
{ "type": "Feature", "id": 94, "properties": { "city": "Salvador", "city_ascii": "Salvador", "lat": -12.97, "lng": -38.48, "country": "Brazil", "iso2": "BR", "iso3": "BRA", "admin_name": "Bahia", "capital": "admin", "population": 3484000.0, "id": 1076923789 }, "geometry": { "type": "Point", "coordinates": [ -38.48, -12.97 ] } },
{ "type": "Feature", "id": 95, "properties": { "city": "Busan", "city_ascii": "Busan", "lat": 35.0951, "lng": 129.01, "country": "Korea, South", "iso2": "KR", "iso3": "KOR", "admin_name": "Busan", "capital": "admin", "population": 3480000.0, "id": 1410601465 }, "geometry": { "type": "Point", "coordinates": [ 129.01, 35.0951 ] } },
{ "type": "Feature", "id": 96, "properties": { "city": "Johannesburg", "city_ascii": "Johannesburg", "lat": -26.17, "lng": 28.03, "country": "South Africa", "iso2": "ZA", "iso3": "ZAF", "admin_name": "Gauteng", "capital": "admin", "population": 3435000.0, "id": 1710550792 }, "geometry": { "type": "Point", "coordinates": [ 28.03, -26.17 ] } },
{ "type": "Feature", "id": 97, "properties": { "city": "Berlin", "city_ascii": "Berlin", "lat": 52.5218, "lng": 13.4015, "country": "Germany", "iso2": "DE", "iso3": "DEU", "admin_name": "Berlin", "capital": "primary", "population": 3406000.0, "id": 1276451290 }, "geometry": { "type": "Point", "coordinates": [ 13.4015, 52.5218 ] } },
{ "type": "Feature", "id": 98, "properties": { "city": "Algiers", "city_ascii": "Algiers", "lat": 36.7631, "lng": 3.0506, "country": "Algeria", "iso2": "DZ", "iso3": "DZA", "admin_name": "Alger", "capital": "primary", "population": 3354000.0, "id": 1012973369 }, "geometry": { "type": "Point", "coordinates": [ 3.0506, 36.7631 ] } },
{ "type": "Feature", "id": 99, "properties": { "city": "Rome", "city_ascii": "Rome", "lat": 41.896, "lng": 12.4833, "country": "Italy", "iso2": "IT", "iso3": "ITA", "admin_name": "Lazio", "capital": "primary", "population": 3339000.0, "id": 1380382862 }, "geometry": { "type": "Point", "coordinates": [ 12.4833, 41.896 ] } },
{ "type": "Feature", "id": 100, "properties": { "city": "Pyongyang", "city_ascii": "Pyongyang", "lat": 39.0194, "lng": 125.7547, "country": "Korea, North", "iso2": "KP", "iso3": "PRK", "admin_name": "P’yŏngyang", "capital": "primary", "population": 3300000.0, "id": 1408738594 }, "geometry": { "type": "Point", "coordinates": [ 125.7547, 39.0194 ] } },
{ "type": "Feature", "id": 101, "properties": { "city": "Medellín", "city_ascii": "Medellin", "lat": 6.275, "lng": -75.575, "country": "Colombia", "iso2": "CO", "iso3": "COL", "admin_name": "Antioquia", "capital": "admin", "population": 3297000.0, "id": 1170680389 }, "geometry": { "type": "Point", "coordinates": [ -75.575, 6.275 ] } },
{ "type": "Feature", "id": 102, "properties": { "city": "Kabul", "city_ascii": "Kabul", "lat": 34.5167, "lng": 69.1833, "country": "Afghanistan", "iso2": "AF", "iso3": "AFG", "admin_name": "Kābul", "capital": "primary", "population": 3277000.0, "id": 1004993580 }, "geometry": { "type": "Point", "coordinates": [ 69.1833, 34.5167 ] } },
{ "type": "Feature", "id": 103, "properties": { "city": "Athens", "city_ascii": "Athens", "lat": 37.9833, "lng": 23.7333, "country": "Greece", "iso2": "GR", "iso3": "GRC", "admin_name": "Attikí", "capital": "primary", "population": 3242000.0, "id": 1300715560 }, "geometry": { "type": "Point", "coordinates": [ 23.7333, 37.9833 ] } },
{ "type": "Feature", "id": 104, "properties": { "city": "Nagoya", "city_ascii": "Nagoya", "lat": 35.155, "lng": 136.915, "country": "Japan", "iso2": "JP", "iso3": "JPN", "admin_name": "Aichi", "capital": "admin", "population": 3230000.0, "id": 1392407472 }, "geometry": { "type": "Point", "coordinates": [ 136.915, 35.155 ] } },
{ "type": "Feature", "id": 105, "properties": { "city": "Cape Town", "city_ascii": "Cape Town", "lat": -33.92, "lng": 18.435, "country": "South Africa", "iso2": "ZA", "iso3": "ZAF", "admin_name": "Western Cape", "capital": "primary", "population": 3215000.0, "id": 1710680650 }, "geometry": { "type": "Point", "coordinates": [ 18.435, -33.92 ] } },
{ "type": "Feature", "id": 106, "properties": { "city": "San Diego", "city_ascii": "San Diego", "lat": 32.8312, "lng": -117.1225, "country": "United States", "iso2": "US", "iso3": "USA", "admin_name": "California", "capital": "", "population": 3210314.0, "id": 1840021990 }, "geometry": { "type": "Point", "coordinates": [ -117.1225, 32.8312 ] } },
{ "type": "Feature", "id": 107, "properties": { "city": "Changchun", "city_ascii": "Changchun", "lat": 43.865, "lng": 125.34, "country": "China", "iso2": "CN", "iso3": "CHN", "admin_name": "Jilin", "capital": "admin", "population": 3183000.0, "id": 1156078103 }, "geometry": { "type": "Point", "coordinates": [ 125.34, 43.865 ] } },
{ "type": "Feature", "id": 108, "properties": { "city": "Casablanca", "city_ascii": "Casablanca", "lat": 33.6, "lng": -7.6164, "country": "Morocco", "iso2": "MA", "iso3": "MAR", "admin_name": "Casablanca-Settat", "capital": "admin", "population": 3181000.0, "id": 1504175315 }, "geometry": { "type": "Point", "coordinates": [ -7.6164, 33.6 ] } },
{ "type": "Feature", "id": 109, "properties": { "city": "Dalian", "city_ascii": "Dalian", "lat": 38.9228, "lng": 121.6298, "country": "China", "iso2": "CN", "iso3": "CHN", "admin_name": "Liaoning", "capital": "", "population": 3167000.0, "id": 1156175472 }, "geometry": { "type": "Point", "coordinates": [ 121.6298, 38.9228 ] } },
{ "type": "Feature", "id": 110, "properties": { "city": "Cawnpore", "city_ascii": "Cawnpore", "lat": 26.46, "lng": 80.32, "country": "India", "iso2": "IN", "iso3": "IND", "admin_name": "Uttar Pradesh", "capital": "", "population": 3162000.0, "id": 1356575238 }, "geometry": { "type": "Point", "coordinates": [ 80.32, 26.46 ] } },
{ "type": "Feature", "id": 111, "properties": { "city": "Kano", "city_ascii": "Kano", "lat": 12.0, "lng": 8.52, "country": "Nigeria", "iso2": "NG", "iso3": "NGA", "admin_name": "Kano", "capital": "admin", "population": 3140000.0, "id": 1566422868 }, "geometry": { "type": "Point", "coordinates": [ 8.52, 12.0 ] } },
{ "type": "Feature", "id": 112, "properties": { "city": "Tel Aviv-Yafo", "city_ascii": "Tel Aviv-Yafo", "lat": 32.08, "lng": 34.77, "country": "Israel", "iso2": "IL", "iso3": "ISR", "admin_name": "Tel Aviv", "capital": "admin", "population": 3112000.0, "id": 1376401542 }, "geometry": { "type": "Point", "coordinates": [ 34.77, 32.08 ] } },
{ "type": "Feature", "id": 113, "properties": { "city": "Addis Ababa", "city_ascii": "Addis Ababa", "lat": 9.0333, "lng": 38.7, "country": "Ethiopia", "iso2": "ET", "iso3": "ETH", "admin_name": "Ādīs Ābeba", "capital": "primary", "population": 3100000.0, "id": 1231824991 }, "geometry": { "type": "Point", "coordinates": [ 38.7, 9.0333 ] } },
{ "type": "Feature", "id": 114, "properties": { "city": "Curitiba", "city_ascii": "Curitiba", "lat": -25.42, "lng": -49.32, "country": "Brazil", "iso2": "BR", "iso3": "BRA", "admin_name": "Paraná", "capital": "admin", "population": 3084000.0, "id": 1076701712 }, "geometry": { "type": "Point", "coordinates": [ -49.32, -25.42 ] } },
{ "type": "Feature", "id": 115, "properties": { "city": "Zibo", "city_ascii": "Zibo", "lat": 36.8, "lng": 118.05, "country": "China", "iso2": "CN", "iso3": "CHN", "admin_name": "Shandong", "capital": "", "population": 3061000.0, "id": 1156381094 }, "geometry": { "type": "Point", "coordinates": [ 118.05, 36.8 ] } },
{ "type": "Feature", "id": 116, "properties": { "city": "Jeddah", "city_ascii": "Jeddah", "lat": 21.5169, "lng": 39.2192, "country": "Saudi Arabia", "iso2": "SA", "iso3": "SAU", "admin_name": "Makkah al Mukarramah", "capital": "", "population": 3012000.0, "id": 1682926944 }, "geometry": { "type": "Point", "coordinates": [ 39.2192, 21.5169 ] } },
{ "type": "Feature", "id": 117, "properties": { "city": "Nairobi", "city_ascii": "Nairobi", "lat": -1.2833, "lng": 36.8167, "country": "Kenya", "iso2": "KE", "iso3": "KEN", "admin_name": "Nairobi City", "capital": "primary", "population": 3010000.0, "id": 1404000661 }, "geometry": { "type": "Point", "coordinates": [ 36.8167, -1.2833 ] } },
{ "type": "Feature", "id": 118, "properties": { "city": "Hangzhou", "city_ascii": "Hangzhou", "lat": 30.25, "lng": 120.17, "country": "China", "iso2": "CN", "iso3": "CHN", "admin_name": "Zhejiang", "capital": "admin", "population": 3007000.0, "id": 1156275243 }, "geometry": { "type": "Point", "coordinates": [ 120.17, 30.25 ] } },
{ "type": "Feature", "id": 119, "properties": { "city": "Benoni", "city_ascii": "Benoni", "lat": -26.1496, "lng": 28.3299, "country": "South Africa", "iso2": "ZA", "iso3": "ZAF", "admin_name": "Gauteng", "capital": "", "population": 2986000.0, "id": 1710880986 }, "geometry": { "type": "Point", "coordinates": [ 28.3299, -26.1496 ] } },
{ "type": "Feature", "id": 120, "properties": { "city": "Caracas", "city_ascii": "Caracas", "lat": 10.501, "lng": -66.917, "country": "Venezuela", "iso2": "VE", "iso3": "VEN", "admin_name": "Distrito Capital", "capital": "primary", "population": 2985000.0, "id": 1862748204 }, "geometry": { "type": "Point", "coordinates": [ -66.917, 10.501 ] } },
{ "type": "Feature", "id": 121, "properties": { "city": "Milan", "city_ascii": "Milan", "lat": 45.47, "lng": 9.205, "country": "Italy", "iso2": "IT", "iso3": "ITA", "admin_name": "Lombardy", "capital": "admin", "population": 2945000.0, "id": 1380724377 }, "geometry": { "type": "Point", "coordinates": [ 9.205, 45.47 ] } },
{ "type": "Feature", "id": 122, "properties": { "city": "Stuttgart", "city_ascii": "Stuttgart", "lat": 48.78, "lng": 9.2, "country": "Germany", "iso2": "DE", "iso3": "DEU", "admin_name": "Baden-Württemberg", "capital": "admin", "population": 2944700.0, "id": 1276171358 }, "geometry": { "type": "Point", "coordinates": [ 9.2, 48.78 ] } },
{ "type": "Feature", "id": 123, "properties": { "city": "Kunming", "city_ascii": "Kunming", "lat": 25.07, "lng": 102.68, "country": "China", "iso2": "CN", "iso3": "CHN", "admin_name": "Yunnan", "capital": "admin", "population": 2931000.0, "id": 1156477539 }, "geometry": { "type": "Point", "coordinates": [ 102.68, 25.07 ] } },
{ "type": "Feature", "id": 124, "properties": { "city": "Dar es Salaam", "city_ascii": "Dar es Salaam", "lat": -6.8, "lng": 39.2683, "country": "Tanzania", "iso2": "TZ", "iso3": "TZA", "admin_name": "Dar es Salaam", "capital": "primary", "population": 2930000.0, "id": 1834843853 }, "geometry": { "type": "Point", "coordinates": [ 39.2683, -6.8 ] } },
{ "type": "Feature", "id": 125, "properties": { "city": "Minneapolis", "city_ascii": "Minneapolis", "lat": 44.9635, "lng": -93.2678, "country": "United States", "iso2": "US", "iso3": "USA", "admin_name": "Minnesota", "capital": "", "population": 2926757.0, "id": 1840007830 }, "geometry": { "type": "Point", "coordinates": [ -93.2678, 44.9635 ] } },
{ "type": "Feature", "id": 126, "properties": { "city": "Jaipur", "city_ascii": "Jaipur", "lat": 26.9211, "lng": 75.81, "country": "India", "iso2": "IN", "iso3": "IND", "admin_name": "Rājasthān", "capital": "admin", "population": 2917000.0, "id": 1356293537 }, "geometry": { "type": "Point", "coordinates": [ 75.81, 26.9211 ] } },
{ "type": "Feature", "id": 127, "properties": { "city": "Taiyuan", "city_ascii": "Taiyuan", "lat": 37.875, "lng": 112.5451, "country": "China", "iso2": "CN", "iso3": "CHN", "admin_name": "Shanxi", "capital": "admin", "population": 2913000.0, "id": 1156632014 }, "geometry": { "type": "Point", "coordinates": [ 112.5451, 37.875 ] } },
{ "type": "Feature", "id": 128, "properties": { "city": "Frankfurt", "city_ascii": "Frankfurt", "lat": 50.1, "lng": 8.675, "country": "Germany", "iso2": "DE", "iso3": "DEU", "admin_name": "Hesse", "capital": "minor", "population": 2895000.0, "id": 1276054552 }, "geometry": { "type": "Point", "coordinates": [ 8.675, 50.1 ] } },
{ "type": "Feature", "id": 129, "properties": { "city": "Qingdao", "city_ascii": "Qingdao", "lat": 36.09, "lng": 120.33, "country": "China", "iso2": "CN", "iso3": "CHN", "admin_name": "Shandong", "capital": "minor", "population": 2866000.0, "id": 1156112588 }, "geometry": { "type": "Point", "coordinates": [ 120.33, 36.09 ] } },
{ "type": "Feature", "id": 130, "properties": { "city": "Surabaya", "city_ascii": "Surabaya", "lat": -7.2492, "lng": 112.7508, "country": "Indonesia", "iso2": "ID", "iso3": "IDN", "admin_name": "Jawa Timur", "capital": "admin", "population": 2845000.0, "id": 1360484663 }, "geometry": { "type": "Point", "coordinates": [ 112.7508, -7.2492 ] } },
{ "type": "Feature", "id": 131, "properties": { "city": "Lisbon", "city_ascii": "Lisbon", "lat": 38.7227, "lng": -9.1449, "country": "Portugal", "iso2": "PT", "iso3": "PRT", "admin_name": "Lisboa", "capital": "primary", "population": 2812000.0, "id": 1620619017 }, "geometry": { "type": "Point", "coordinates": [ -9.1449, 38.7227 ] } },
{ "type": "Feature", "id": 132, "properties": { "city": "Tampa", "city_ascii": "Tampa", "lat": 27.9942, "lng": -82.4451, "country": "United States", "iso2": "US", "iso3": "USA", "admin_name": "Florida", "capital": "", "population": 2804240.0, "id": 1840015982 }, "geometry": { "type": "Point", "coordinates": [ -82.4451, 27.9942 ] } },
{ "type": "Feature", "id": 133, "properties": { "city": "Jinan", "city_ascii": "Jinan", "lat": 36.675, "lng": 116.995, "country": "China", "iso2": "CN", "iso3": "CHN", "admin_name": "Shandong", "capital": "admin", "population": 2798000.0, "id": 1156972469 }, "geometry": { "type": "Point", "coordinates": [ 116.995, 36.675 ] } },
{ "type": "Feature", "id": 134, "properties": { "city": "Fukuoka", "city_ascii": "Fukuoka", "lat": 33.595, "lng": 130.41, "country": "Japan", "iso2": "JP", "iso3": "JPN", "admin_name": "Fukuoka", "capital": "admin", "population": 2792000.0, "id": 1392576294 }, "geometry": { "type": "Point", "coordinates": [ 130.41, 33.595 ] } },
{ "type": "Feature", "id": 135, "properties": { "city": "Campinas", "city_ascii": "Campinas", "lat": -22.9, "lng": -47.1, "country": "Brazil", "iso2": "BR", "iso3": "BRA", "admin_name": "São Paulo", "capital": "", "population": 2791000.0, "id": 1076145766 }, "geometry": { "type": "Point", "coordinates": [ -47.1, -22.9 ] } },
{ "type": "Feature", "id": 136, "properties": { "city": "Denver", "city_ascii": "Denver", "lat": 39.7621, "lng": -104.8759, "country": "United States", "iso2": "US", "iso3": "USA", "admin_name": "Colorado", "capital": "admin", "population": 2787266.0, "id": 1840018789 }, "geometry": { "type": "Point", "coordinates": [ -104.8759, 39.7621 ] } },
{ "type": "Feature", "id": 137, "properties": { "city": "Kaohsiung", "city_ascii": "Kaohsiung", "lat": 22.6333, "lng": 120.2666, "country": "Taiwan", "iso2": "TW", "iso3": "TWN", "admin_name": "Kaohsiung", "capital": "admin", "population": 2769072.0, "id": 1158331334 }, "geometry": { "type": "Point", "coordinates": [ 120.2666, 22.6333 ] } },
{ "type": "Feature", "id": 138, "properties": { "city": "Quezon City", "city_ascii": "Quezon City", "lat": 14.6504, "lng": 121.03, "country": "Philippines", "iso2": "PH", "iso3": "PHL", "admin_name": "Quezon", "capital": "admin", "population": 2761720.0, "id": 1608974097 }, "geometry": { "type": "Point", "coordinates": [ 121.03, 14.6504 ] } },
{ "type": "Feature", "id": 139, "properties": { "city": "Katowice", "city_ascii": "Katowice", "lat": 50.2604, "lng": 19.02, "country": "Poland", "iso2": "PL", "iso3": "POL", "admin_name": "Śląskie", "capital": "admin", "population": 2746000.0, "id": 1616798495 }, "geometry": { "type": "Point", "coordinates": [ 19.02, 50.2604 ] } },
{ "type": "Feature", "id": 140, "properties": { "city": "Aleppo", "city_ascii": "Aleppo", "lat": 36.23, "lng": 37.17, "country": "Syria", "iso2": "SY", "iso3": "SYR", "admin_name": "Ḩalab", "capital": "admin", "population": 2738000.0, "id": 1760366651 }, "geometry": { "type": "Point", "coordinates": [ 37.17, 36.23 ] } },
{ "type": "Feature", "id": 141, "properties": { "city": "Durban", "city_ascii": "Durban", "lat": -29.865, "lng": 30.98, "country": "South Africa", "iso2": "ZA", "iso3": "ZAF", "admin_name": "KwaZulu-Natal", "capital": "", "population": 2729000.0, "id": 1710149138 }, "geometry": { "type": "Point", "coordinates": [ 30.98, -29.865 ] } },
{ "type": "Feature", "id": 142, "properties": { "city": "Kyiv", "city_ascii": "Kyiv", "lat": 50.4334, "lng": 30.5166, "country": "Ukraine", "iso2": "UA", "iso3": "UKR", "admin_name": "Kyyiv, Misto", "capital": "primary", "population": 2709000.0, "id": 1804382913 }, "geometry": { "type": "Point", "coordinates": [ 30.5166, 50.4334 ] } },
{ "type": "Feature", "id": 143, "properties": { "city": "Lucknow", "city_ascii": "Lucknow", "lat": 26.855, "lng": 80.915, "country": "India", "iso2": "IN", "iso3": "IND", "admin_name": "Uttar Pradesh", "capital": "admin", "population": 2695000.0, "id": 1356891790 }, "geometry": { "type": "Point", "coordinates": [ 80.915, 26.855 ] } },
{ "type": "Feature", "id": 144, "properties": { "city": "Giza", "city_ascii": "Giza", "lat": 30.01, "lng": 31.19, "country": "Egypt", "iso2": "EG", "iso3": "EGY", "admin_name": "Al Jīzah", "capital": "admin", "population": 2681863.0, "id": 1818925479 }, "geometry": { "type": "Point", "coordinates": [ 31.19, 30.01 ] } },
{ "type": "Feature", "id": 145, "properties": { "city": "Zhengzhou", "city_ascii": "Zhengzhou", "lat": 34.755, "lng": 113.6651, "country": "China", "iso2": "CN", "iso3": "CHN", "admin_name": "Henan", "capital": "admin", "population": 2636000.0, "id": 1156183137 }, "geometry": { "type": "Point", "coordinates": [ 113.6651, 34.755 ] } },
{ "type": "Feature", "id": 146, "properties": { "city": "Taichung", "city_ascii": "Taichung", "lat": 24.1521, "lng": 120.6817, "country": "Taiwan", "iso2": "TW", "iso3": "TWN", "admin_name": "Taichung", "capital": "admin", "population": 2629323.0, "id": 1158689622 }, "geometry": { "type": "Point", "coordinates": [ 120.6817, 24.1521 ] } },
{ "type": "Feature", "id": 147, "properties": { "city": "Brooklyn", "city_ascii": "Brooklyn", "lat": 40.6501, "lng": -73.9496, "country": "United States", "iso2": "US", "iso3": "USA", "admin_name": "New York", "capital": "", "population": 2629150.0, "id": 1840034030 }, "geometry": { "type": "Point", "coordinates": [ -73.9496, 40.6501 ] } },
{ "type": "Feature", "id": 148, "properties": { "city": "Ibadan", "city_ascii": "Ibadan", "lat": 7.38, "lng": 3.93, "country": "Nigeria", "iso2": "NG", "iso3": "NGA", "admin_name": "Oyo", "capital": "admin", "population": 2628000.0, "id": 1566366407 }, "geometry": { "type": "Point", "coordinates": [ 3.93, 7.38 ] } },
{ "type": "Feature", "id": 149, "properties": { "city": "Faisalabad", "city_ascii": "Faisalabad", "lat": 31.41, "lng": 73.11, "country": "Pakistan", "iso2": "PK", "iso3": "PAK", "admin_name": "Punjab", "capital": "minor", "population": 2617000.0, "id": 1586323916 }, "geometry": { "type": "Point", "coordinates": [ 73.11, 31.41 ] } },
{ "type": "Feature", "id": 150, "properties": { "city": "Fuzhou", "city_ascii": "Fuzhou", "lat": 26.08, "lng": 119.3, "country": "China", "iso2": "CN", "iso3": "CHN", "admin_name": "Fujian", "capital": "admin", "population": 2606000.0, "id": 1156188037 }, "geometry": { "type": "Point", "coordinates": [ 119.3, 26.08 ] } },
{ "type": "Feature", "id": 151, "properties": { "city": "Changsha", "city_ascii": "Changsha", "lat": 28.2, "lng": 112.97, "country": "China", "iso2": "CN", "iso3": "CHN", "admin_name": "Hunan", "capital": "admin", "population": 2604000.0, "id": 1156961497 }, "geometry": { "type": "Point", "coordinates": [ 112.97, 28.2 ] } },
{ "type": "Feature", "id": 152, "properties": { "city": "Dakar", "city_ascii": "Dakar", "lat": 14.7158, "lng": -17.4731, "country": "Senegal", "iso2": "SN", "iso3": "SEN", "admin_name": "Dakar", "capital": "primary", "population": 2604000.0, "id": 1686604760 }, "geometry": { "type": "Point", "coordinates": [ -17.4731, 14.7158 ] } },
{ "type": "Feature", "id": 153, "properties": { "city": "İzmir", "city_ascii": "Izmir", "lat": 38.4361, "lng": 27.1518, "country": "Turkey", "iso2": "TR", "iso3": "TUR", "admin_name": "İzmir", "capital": "admin", "population": 2587000.0, "id": 1792725579 }, "geometry": { "type": "Point", "coordinates": [ 27.1518, 38.4361 ] } },
{ "type": "Feature", "id": 154, "properties": { "city": "Xiangtan", "city_ascii": "Xiangtan", "lat": 27.8504, "lng": 112.9, "country": "China", "iso2": "CN", "iso3": "CHN", "admin_name": "Hunan", "capital": "", "population": 2586948.0, "id": 1156195684 }, "geometry": { "type": "Point", "coordinates": [ 112.9, 27.8504 ] } },
{ "type": "Feature", "id": 155, "properties": { "city": "Lanzhou", "city_ascii": "Lanzhou", "lat": 36.056, "lng": 103.792, "country": "China", "iso2": "CN", "iso3": "CHN", "admin_name": "Gansu", "capital": "admin", "population": 2561000.0, "id": 1156280566 }, "geometry": { "type": "Point", "coordinates": [ 103.792, 36.056 ] } },
{ "type": "Feature", "id": 156, "properties": { "city": "Incheon", "city_ascii": "Incheon", "lat": 37.4761, "lng": 126.6422, "country": "Korea, South", "iso2": "KR", "iso3": "KOR", "admin_name": "Incheon", "capital": "admin", "population": 2550000.0, "id": 1410160313 }, "geometry": { "type": "Point", "coordinates": [ 126.6422, 37.4761 ] } },
{ "type": "Feature", "id": 157, "properties": { "city": "Sapporo", "city_ascii": "Sapporo", "lat": 43.075, "lng": 141.34, "country": "Japan", "iso2": "JP", "iso3": "JPN", "admin_name": "Hokkaidō", "capital": "admin", "population": 2544000.0, "id": 1392000195 }, "geometry": { "type": "Point", "coordinates": [ 141.34, 43.075 ] } },
{ "type": "Feature", "id": 158, "properties": { "city": "Xiamen", "city_ascii": "Xiamen", "lat": 24.45, "lng": 118.08, "country": "China", "iso2": "CN", "iso3": "CHN", "admin_name": "Fujian", "capital": "minor", "population": 2519000.0, "id": 1156212809 }, "geometry": { "type": "Point", "coordinates": [ 118.08, 24.45 ] } },
{ "type": "Feature", "id": 159, "properties": { "city": "Guayaquil", "city_ascii": "Guayaquil", "lat": -2.22, "lng": -79.92, "country": "Ecuador", "iso2": "EC", "iso3": "ECU", "admin_name": "Guayas", "capital": "admin", "population": 2514000.0, "id": 1218802178 }, "geometry": { "type": "Point", "coordinates": [ -79.92, -2.22 ] } },
{ "type": "Feature", "id": 160, "properties": { "city": "George Town", "city_ascii": "George Town", "lat": 5.4136, "lng": 100.3294, "country": "Malaysia", "iso2": "MY", "iso3": "MYS", "admin_name": "Pulau Pinang", "capital": "admin", "population": 2500000.0, "id": 1458236750 }, "geometry": { "type": "Point", "coordinates": [ 100.3294, 5.4136 ] } },
{ "type": "Feature", "id": 161, "properties": { "city": "Mashhad", "city_ascii": "Mashhad", "lat": 36.27, "lng": 59.57, "country": "Iran", "iso2": "IR", "iso3": "IRN", "admin_name": "Khorāsān-e Raẕavī", "capital": "admin", "population": 2469000.0, "id": 1364123206 }, "geometry": { "type": "Point", "coordinates": [ 59.57, 36.27 ] } },
{ "type": "Feature", "id": 162, "properties": { "city": "Damascus", "city_ascii": "Damascus", "lat": 33.5, "lng": 36.3, "country": "Syria", "iso2": "SY", "iso3": "SYR", "admin_name": "Dimashq", "capital": "primary", "population": 2466000.0, "id": 1760685964 }, "geometry": { "type": "Point", "coordinates": [ 36.3, 33.5 ] } },
{ "type": "Feature", "id": 163, "properties": { "city": "Daegu", "city_ascii": "Daegu", "lat": 35.8668, "lng": 128.607, "country": "Korea, South", "iso2": "KR", "iso3": "KOR", "admin_name": "Daegu", "capital": "admin", "population": 2460000.0, "id": 1410095252 }, "geometry": { "type": "Point", "coordinates": [ 128.607, 35.8668 ] } },
{ "type": "Feature", "id": 164, "properties": { "city": "Nāgpur", "city_ascii": "Nagpur", "lat": 21.17, "lng": 79.09, "country": "India", "iso2": "IN", "iso3": "IND", "admin_name": "Mahārāshtra", "capital": "", "population": 2454000.0, "id": 1356365743 }, "geometry": { "type": "Point", "coordinates": [ 79.09, 21.17 ] } },
{ "type": "Feature", "id": 165, "properties": { "city": "Lianshan", "city_ascii": "Lianshan", "lat": 40.7503, "lng": 120.83, "country": "China", "iso2": "CN", "iso3": "CHN", "admin_name": "Liaoning", "capital": "minor", "population": 2426000.0, "id": 1156046704 }, "geometry": { "type": "Point", "coordinates": [ 120.83, 40.7503 ] } },
{ "type": "Feature", "id": 166, "properties": { "city": "Shijiazhuang", "city_ascii": "Shijiazhuang", "lat": 38.05, "lng": 114.48, "country": "China", "iso2": "CN", "iso3": "CHN", "admin_name": "Hebei", "capital": "admin", "population": 2417000.0, "id": 1156217541 }, "geometry": { "type": "Point", "coordinates": [ 114.48, 38.05 ] } },
{ "type": "Feature", "id": 167, "properties": { "city": "Tunis", "city_ascii": "Tunis", "lat": 36.8028, "lng": 10.1797, "country": "Tunisia", "iso2": "TN", "iso3": "TUN", "admin_name": "Tunis", "capital": "primary", "population": 2412500.0, "id": 1788742103 }, "geometry": { "type": "Point", "coordinates": [ 10.1797, 36.8028 ] } },
{ "type": "Feature", "id": 168, "properties": { "city": "Vienna", "city_ascii": "Vienna", "lat": 48.2, "lng": 16.3666, "country": "Austria", "iso2": "AT", "iso3": "AUT", "admin_name": "Wien", "capital": "primary", "population": 2400000.0, "id": 1040261752 }, "geometry": { "type": "Point", "coordinates": [ 16.3666, 48.2 ] } },
{ "type": "Feature", "id": 169, "properties": { "city": "Jilin", "city_ascii": "Jilin", "lat": 43.85, "lng": 126.55, "country": "China", "iso2": "CN", "iso3": "CHN", "admin_name": "Jilin", "capital": "", "population": 2396000.0, "id": 1156646448 }, "geometry": { "type": "Point", "coordinates": [ 126.55, 43.85 ] } },
{ "type": "Feature", "id": 170, "properties": { "city": "Omdurman", "city_ascii": "Omdurman", "lat": 15.6167, "lng": 32.48, "country": "Sudan", "iso2": "SD", "iso3": "SDN", "admin_name": "Khartoum", "capital": "", "population": 2395159.0, "id": 1729912179 }, "geometry": { "type": "Point", "coordinates": [ 32.48, 15.6167 ] } },
{ "type": "Feature", "id": 171, "properties": { "city": "Bandung", "city_ascii": "Bandung", "lat": -6.95, "lng": 107.57, "country": "Indonesia", "iso2": "ID", "iso3": "IDN", "admin_name": "Jawa Barat", "capital": "admin", "population": 2394000.0, "id": 1360313023 }, "geometry": { "type": "Point", "coordinates": [ 107.57, -6.95 ] } },
{ "type": "Feature", "id": 172, "properties": { "city": "Bekasi", "city_ascii": "Bekasi", "lat": -6.2173, "lng": 106.9723, "country": "Indonesia", "iso2": "ID", "iso3": "IDN", "admin_name": "Jawa Barat", "capital": "", "population": 2378211.0, "id": 1360006015 }, "geometry": { "type": "Point", "coordinates": [ 106.9723, -6.2173 ] } },
{ "type": "Feature", "id": 173, "properties": { "city": "Mannheim", "city_ascii": "Mannheim", "lat": 49.5004, "lng": 8.47, "country": "Germany", "iso2": "DE", "iso3": "DEU", "admin_name": "Baden-Württemberg", "capital": "minor", "population": 2362000.0, "id": 1276150104 }, "geometry": { "type": "Point", "coordinates": [ 8.47, 49.5004 ] } },
{ "type": "Feature", "id": 174, "properties": { "city": "Nanchang", "city_ascii": "Nanchang", "lat": 28.68, "lng": 115.88, "country": "China", "iso2": "CN", "iso3": "CHN", "admin_name": "Jiangxi", "capital": "admin", "population": 2350000.0, "id": 1156198892 }, "geometry": { "type": "Point", "coordinates": [ 115.88, 28.68 ] } },
{ "type": "Feature", "id": 175, "properties": { "city": "Wenzhou", "city_ascii": "Wenzhou", "lat": 28.02, "lng": 120.6501, "country": "China", "iso2": "CN", "iso3": "CHN", "admin_name": "Zhejiang", "capital": "", "population": 2350000.0, "id": 1156188829 }, "geometry": { "type": "Point", "coordinates": [ 120.6501, 28.02 ] } },
{ "type": "Feature", "id": 176, "properties": { "city": "Queens", "city_ascii": "Queens", "lat": 40.7498, "lng": -73.7976, "country": "United States", "iso2": "US", "iso3": "USA", "admin_name": "New York", "capital": "", "population": 2333054.0, "id": 1840034002 }, "geometry": { "type": "Point", "coordinates": [ -73.7976, 40.7498 ] } },
{ "type": "Feature", "id": 177, "properties": { "city": "Vancouver", "city_ascii": "Vancouver", "lat": 49.2734, "lng": -123.1216, "country": "Canada", "iso2": "CA", "iso3": "CAN", "admin_name": "British Columbia", "capital": "", "population": 2313328.0, "id": 1124825478 }, "geometry": { "type": "Point", "coordinates": [ -123.1216, 49.2734 ] } },
{ "type": "Feature", "id": 178, "properties": { "city": "Birmingham", "city_ascii": "Birmingham", "lat": 52.475, "lng": -1.92, "country": "United Kingdom", "iso2": "GB", "iso3": "GBR", "admin_name": "Birmingham", "capital": "admin", "population": 2285000.0, "id": 1826423213 }, "geometry": { "type": "Point", "coordinates": [ -1.92, 52.475 ] } },
{ "type": "Feature", "id": 179, "properties": { "city": "Cali", "city_ascii": "Cali", "lat": 3.4, "lng": -76.5, "country": "Colombia", "iso2": "CO", "iso3": "COL", "admin_name": "Valle del Cauca", "capital": "admin", "population": 2254000.0, "id": 1170417589 }, "geometry": { "type": "Point", "coordinates": [ -76.5, 3.4 ] } },
{ "type": "Feature", "id": 180, "properties": { "city": "Naples", "city_ascii": "Naples", "lat": 40.84, "lng": 14.245, "country": "Italy", "iso2": "IT", "iso3": "ITA", "admin_name": "Campania", "capital": "admin", "population": 2250000.0, "id": 1380646673 }, "geometry": { "type": "Point", "coordinates": [ 14.245, 40.84 ] } },
{ "type": "Feature", "id": 181, "properties": { "city": "Sendai", "city_ascii": "Sendai", "lat": 38.2871, "lng": 141.0217, "country": "Japan", "iso2": "JP", "iso3": "JPN", "admin_name": "Miyagi", "capital": "admin", "population": 2250000.0, "id": 1392457903 }, "geometry": { "type": "Point", "coordinates": [ 141.0217, 38.2871 ] } },
{ "type": "Feature", "id": 182, "properties": { "city": "Manchester", "city_ascii": "Manchester", "lat": 53.5004, "lng": -2.248, "country": "United Kingdom", "iso2": "GB", "iso3": "GBR", "admin_name": "Manchester", "capital": "admin", "population": 2230000.0, "id": 1826246335 }, "geometry": { "type": "Point", "coordinates": [ -2.248, 53.5004 ] } },
{ "type": "Feature", "id": 183, "properties": { "city": "Puebla", "city_ascii": "Puebla", "lat": 19.05, "lng": -98.2, "country": "Mexico", "iso2": "MX", "iso3": "MEX", "admin_name": "Puebla", "capital": "admin", "population": 2195000.0, "id": 1484416394 }, "geometry": { "type": "Point", "coordinates": [ -98.2, 19.05 ] } },
{ "type": "Feature", "id": 184, "properties": { "city": "Tripoli", "city_ascii": "Tripoli", "lat": 32.8925, "lng": 13.18, "country": "Libya", "iso2": "LY", "iso3": "LBY", "admin_name": "Ţarābulus", "capital": "primary", "population": 2189000.0, "id": 1434201852 }, "geometry": { "type": "Point", "coordinates": [ 13.18, 32.8925 ] } },
{ "type": "Feature", "id": 185, "properties": { "city": "Tashkent", "city_ascii": "Tashkent", "lat": 41.3117, "lng": 69.2949, "country": "Uzbekistan", "iso2": "UZ", "iso3": "UZB", "admin_name": "Toshkent", "capital": "primary", "population": 2184000.0, "id": 1860331871 }, "geometry": { "type": "Point", "coordinates": [ 69.2949, 41.3117 ] } },
{ "type": "Feature", "id": 186, "properties": { "city": "Havana", "city_ascii": "Havana", "lat": 23.132, "lng": -82.3642, "country": "Cuba", "iso2": "CU", "iso3": "CUB", "admin_name": "La Habana", "capital": "primary", "population": 2174000.0, "id": 1192752771 }, "geometry": { "type": "Point", "coordinates": [ -82.3642, 23.132 ] } },
{ "type": "Feature", "id": 187, "properties": { "city": "Gaoping", "city_ascii": "Gaoping", "lat": 30.7804, "lng": 106.13, "country": "China", "iso2": "CN", "iso3": "CHN", "admin_name": "Sichuan", "capital": "minor", "population": 2174000.0, "id": 1156522457 }, "geometry": { "type": "Point", "coordinates": [ 106.13, 30.7804 ] } },
{ "type": "Feature", "id": 188, "properties": { "city": "Baltimore", "city_ascii": "Baltimore", "lat": 39.3051, "lng": -76.6144, "country": "United States", "iso2": "US", "iso3": "USA", "admin_name": "Maryland", "capital": "", "population": 2170504.0, "id": 1840001592 }, "geometry": { "type": "Point", "coordinates": [ -76.6144, 39.3051 ] } },
{ "type": "Feature", "id": 189, "properties": { "city": "Nanning", "city_ascii": "Nanning", "lat": 22.82, "lng": 108.32, "country": "China", "iso2": "CN", "iso3": "CHN", "admin_name": "Guangxi", "capital": "admin", "population": 2167000.0, "id": 1156605439 }, "geometry": { "type": "Point", "coordinates": [ 108.32, 22.82 ] } },
{ "type": "Feature", "id": 190, "properties": { "city": "Belém", "city_ascii": "Belem", "lat": -1.45, "lng": -48.48, "country": "Brazil", "iso2": "BR", "iso3": "BRA", "admin_name": "Pará", "capital": "admin", "population": 2167000.0, "id": 1076646823 }, "geometry": { "type": "Point", "coordinates": [ -48.48, -1.45 ] } },
{ "type": "Feature", "id": 191, "properties": { "city": "Patna", "city_ascii": "Patna", "lat": 25.625, "lng": 85.13, "country": "India", "iso2": "IN", "iso3": "IND", "admin_name": "Bihār", "capital": "admin", "population": 2158000.0, "id": 1356821429 }, "geometry": { "type": "Point", "coordinates": [ 85.13, 25.625 ] } },
{ "type": "Feature", "id": 192, "properties": { "city": "Santo Domingo", "city_ascii": "Santo Domingo", "lat": 18.4701, "lng": -69.9001, "country": "Dominican Republic", "iso2": "DO", "iso3": "DOM", "admin_name": "Ozama", "capital": "primary", "population": 2154000.0, "id": 1214636202 }, "geometry": { "type": "Point", "coordinates": [ -69.9001, 18.4701 ] } },
{ "type": "Feature", "id": 193, "properties": { "city": "Ürümqi", "city_ascii": "Urumqi", "lat": 43.805, "lng": 87.575, "country": "China", "iso2": "CN", "iso3": "CHN", "admin_name": "Xinjiang", "capital": "admin", "population": 2151000.0, "id": 1156051276 }, "geometry": { "type": "Point", "coordinates": [ 87.575, 43.805 ] } },
{ "type": "Feature", "id": 194, "properties": { "city": "Zaozhuang", "city_ascii": "Zaozhuang", "lat": 34.88, "lng": 117.57, "country": "China", "iso2": "CN", "iso3": "CHN", "admin_name": "Shandong", "capital": "", "population": 2145000.0, "id": 1156796454 }, "geometry": { "type": "Point", "coordinates": [ 117.57, 34.88 ] } },
{ "type": "Feature", "id": 195, "properties": { "city": "Baku", "city_ascii": "Baku", "lat": 40.3953, "lng": 49.8622, "country": "Azerbaijan", "iso2": "AZ", "iso3": "AZE", "admin_name": "Bakı", "capital": "primary", "population": 2122300.0, "id": 1031946365 }, "geometry": { "type": "Point", "coordinates": [ 49.8622, 40.3953 ] } },
{ "type": "Feature", "id": 196, "properties": { "city": "Accra", "city_ascii": "Accra", "lat": 5.55, "lng": -0.2167, "country": "Ghana", "iso2": "GH", "iso3": "GHA", "admin_name": "Greater Accra", "capital": "primary", "population": 2121000.0, "id": 1288299415 }, "geometry": { "type": "Point", "coordinates": [ -0.2167, 5.55 ] } },
{ "type": "Feature", "id": 197, "properties": { "city": "Yantai", "city_ascii": "Yantai", "lat": 37.5304, "lng": 121.4, "country": "China", "iso2": "CN", "iso3": "CHN", "admin_name": "Shandong", "capital": "", "population": 2116000.0, "id": 1156932948 }, "geometry": { "type": "Point", "coordinates": [ 121.4, 37.5304 ] } },
{ "type": "Feature", "id": 198, "properties": { "city": "Medan", "city_ascii": "Medan", "lat": 3.58, "lng": 98.65, "country": "Indonesia", "iso2": "ID", "iso3": "IDN", "admin_name": "Sumatera Utara", "capital": "admin", "population": 2115000.0, "id": 1360543171 }, "geometry": { "type": "Point", "coordinates": [ 98.65, 3.58 ] } },
{ "type": "Feature", "id": 199, "properties": { "city": "Santa Cruz", "city_ascii": "Santa Cruz", "lat": -17.7539, "lng": -63.226, "country": "Bolivia", "iso2": "BO", "iso3": "BOL", "admin_name": "Santa Cruz", "capital": "", "population": 2102998.0, "id": 1068002564 }, "geometry": { "type": "Point", "coordinates": [ -63.226, -17.7539 ] } },
{ "type": "Feature", "id": 200, "properties": { "city": "Tongshan", "city_ascii": "Tongshan", "lat": 34.28, "lng": 117.18, "country": "China", "iso2": "CN", "iso3": "CHN", "admin_name": "Jiangsu", "capital": "minor", "population": 2091000.0, "id": 1156241678 }, "geometry": { "type": "Point", "coordinates": [ 117.18, 34.28 ] } },
{ "type": "Feature", "id": 201, "properties": { "city": "Riverside", "city_ascii": "Riverside", "lat": 33.9381, "lng": -117.3948, "country": "United States", "iso2": "US", "iso3": "USA", "admin_name": "California", "capital": "", "population": 2084749.0, "id": 1840020551 }, "geometry": { "type": "Point", "coordinates": [ -117.3948, 33.9381 ] } },
{ "type": "Feature", "id": 202, "properties": { "city": "Linyi", "city_ascii": "Linyi", "lat": 35.08, "lng": 118.33, "country": "China", "iso2": "CN", "iso3": "CHN", "admin_name": "Shandong", "capital": "", "population": 2082000.0, "id": 1156086320 }, "geometry": { "type": "Point", "coordinates": [ 118.33, 35.08 ] } },
{ "type": "Feature", "id": 203, "properties": { "city": "St. Louis", "city_ascii": "St. Louis", "lat": 38.6358, "lng": -90.2451, "country": "United States", "iso2": "US", "iso3": "USA", "admin_name": "Missouri", "capital": "", "population": 2078283.0, "id": 1840001651 }, "geometry": { "type": "Point", "coordinates": [ -90.2451, 38.6358 ] } },
{ "type": "Feature", "id": 204, "properties": { "city": "Las Vegas", "city_ascii": "Las Vegas", "lat": 36.2333, "lng": -115.2654, "country": "United States", "iso2": "US", "iso3": "USA", "admin_name": "Nevada", "capital": "", "population": 2073045.0, "id": 1840020364 }, "geometry": { "type": "Point", "coordinates": [ -115.2654, 36.2333 ] } },
{ "type": "Feature", "id": 205, "properties": { "city": "Maracaibo", "city_ascii": "Maracaibo", "lat": 10.73, "lng": -71.66, "country": "Venezuela", "iso2": "VE", "iso3": "VEN", "admin_name": "Zulia", "capital": "admin", "population": 2072000.0, "id": 1862072711 }, "geometry": { "type": "Point", "coordinates": [ -71.66, 10.73 ] } },
{ "type": "Feature", "id": 206, "properties": { "city": "Kuwait City", "city_ascii": "Kuwait City", "lat": 29.3697, "lng": 47.9783, "country": "Kuwait", "iso2": "KW", "iso3": "KWT", "admin_name": "Al ‘Āşimah", "capital": "primary", "population": 2063000.0, "id": 1414102075 }, "geometry": { "type": "Point", "coordinates": [ 47.9783, 29.3697 ] } },
{ "type": "Feature", "id": 207, "properties": { "city": "Ad Dammām", "city_ascii": "Ad Dammam", "lat": 26.4282, "lng": 50.0997, "country": "Saudi Arabia", "iso2": "SA", "iso3": "SAU", "admin_name": "Ash Sharqīyah", "capital": "admin", "population": 2054710.0, "id": 1682452296 }, "geometry": { "type": "Point", "coordinates": [ 50.0997, 26.4282 ] } },
{ "type": "Feature", "id": 208, "properties": { "city": "Portland", "city_ascii": "Portland", "lat": 45.5371, "lng": -122.65, "country": "United States", "iso2": "US", "iso3": "USA", "admin_name": "Oregon", "capital": "", "population": 2052796.0, "id": 1840019941 }, "geometry": { "type": "Point", "coordinates": [ -122.65, 45.5371 ] } },
{ "type": "Feature", "id": 209, "properties": { "city": "Haikou", "city_ascii": "Haikou", "lat": 20.05, "lng": 110.32, "country": "China", "iso2": "CN", "iso3": "CHN", "admin_name": "Hainan", "capital": "admin", "population": 2046189.0, "id": 1156183327 }, "geometry": { "type": "Point", "coordinates": [ 110.32, 20.05 ] } },
{ "type": "Feature", "id": 210, "properties": { "city": "Hiroshima", "city_ascii": "Hiroshima", "lat": 34.3878, "lng": 132.4429, "country": "Japan", "iso2": "JP", "iso3": "JPN", "admin_name": "Hiroshima", "capital": "admin", "population": 2045000.0, "id": 1392373695 }, "geometry": { "type": "Point", "coordinates": [ 132.4429, 34.3878 ] } },
{ "type": "Feature", "id": 211, "properties": { "city": "Baotou", "city_ascii": "Baotou", "lat": 40.6522, "lng": 109.822, "country": "China", "iso2": "CN", "iso3": "CHN", "admin_name": "Inner Mongolia", "capital": "", "population": 2036000.0, "id": 1156032751 }, "geometry": { "type": "Point", "coordinates": [ 109.822, 40.6522 ] } },
{ "type": "Feature", "id": 212, "properties": { "city": "Hefei", "city_ascii": "Hefei", "lat": 31.85, "lng": 117.28, "country": "China", "iso2": "CN", "iso3": "CHN", "admin_name": "Anhui", "capital": "admin", "population": 2035000.0, "id": 1156332710 }, "geometry": { "type": "Point", "coordinates": [ 117.28, 31.85 ] } },
{ "type": "Feature", "id": 213, "properties": { "city": "Indore", "city_ascii": "Indore", "lat": 22.7151, "lng": 75.865, "country": "India", "iso2": "IN", "iso3": "IND", "admin_name": "Madhya Pradesh", "capital": "", "population": 2026000.0, "id": 1356402812 }, "geometry": { "type": "Point", "coordinates": [ 75.865, 22.7151 ] } },
{ "type": "Feature", "id": 214, "properties": { "city": "Goiânia", "city_ascii": "Goiania", "lat": -16.72, "lng": -49.3, "country": "Brazil", "iso2": "BR", "iso3": "BRA", "admin_name": "Goiás", "capital": "admin", "population": 2022000.0, "id": 1076034054 }, "geometry": { "type": "Point", "coordinates": [ -49.3, -16.72 ] } },
{ "type": "Feature", "id": 215, "properties": { "city": "Sanaa", "city_ascii": "Sanaa", "lat": 15.3547, "lng": 44.2066, "country": "Yemen", "iso2": "YE", "iso3": "YEM", "admin_name": "Amānat al ‘Āşimah", "capital": "primary", "population": 2008000.0, "id": 1887750814 }, "geometry": { "type": "Point", "coordinates": [ 44.2066, 15.3547 ] } },
{ "type": "Feature", "id": 216, "properties": { "city": "San Antonio", "city_ascii": "San Antonio", "lat": 29.4658, "lng": -98.5254, "country": "United States", "iso2": "US", "iso3": "USA", "admin_name": "Texas", "capital": "", "population": 2002530.0, "id": 1840022220 }, "geometry": { "type": "Point", "coordinates": [ -98.5254, 29.4658 ] } },
{ "type": "Feature", "id": 217, "properties": { "city": "Port-au-Prince", "city_ascii": "Port-au-Prince", "lat": 18.541, "lng": -72.336, "country": "Haiti", "iso2": "HT", "iso3": "HTI", "admin_name": "Ouest", "capital": "primary", "population": 1998000.0, "id": 1332401940 }, "geometry": { "type": "Point", "coordinates": [ -72.336, 18.541 ] } },
{ "type": "Feature", "id": 218, "properties": { "city": "Haiphong", "city_ascii": "Haiphong", "lat": 20.83, "lng": 106.6801, "country": "Vietnam", "iso2": "VN", "iso3": "VNM", "admin_name": "Hải Phòng", "capital": "admin", "population": 1969000.0, "id": 1704000623 }, "geometry": { "type": "Point", "coordinates": [ 106.6801, 20.83 ] } },
{ "type": "Feature", "id": 219, "properties": { "city": "Suzhou", "city_ascii": "Suzhou", "lat": 33.6361, "lng": 116.9789, "country": "China", "iso2": "CN", "iso3": "CHN", "admin_name": "Anhui", "capital": "", "population": 1964000.0, "id": 1156871297 }, "geometry": { "type": "Point", "coordinates": [ 116.9789, 33.6361 ] } },
{ "type": "Feature", "id": 220, "properties": { "city": "Nanyang", "city_ascii": "Nanyang", "lat": 33.0004, "lng": 112.53, "country": "China", "iso2": "CN", "iso3": "CHN", "admin_name": "Henan", "capital": "", "population": 1944000.0, "id": 1156192287 }, "geometry": { "type": "Point", "coordinates": [ 112.53, 33.0004 ] } },
{ "type": "Feature", "id": 221, "properties": { "city": "Bucharest", "city_ascii": "Bucharest", "lat": 44.4334, "lng": 26.0999, "country": "Romania", "iso2": "RO", "iso3": "ROU", "admin_name": "Bucureşti", "capital": "primary", "population": 1942000.0, "id": 1642414442 }, "geometry": { "type": "Point", "coordinates": [ 26.0999, 44.4334 ] } },
{ "type": "Feature", "id": 222, "properties": { "city": "Ningbo", "city_ascii": "Ningbo", "lat": 29.88, "lng": 121.55, "country": "China", "iso2": "CN", "iso3": "CHN", "admin_name": "Zhejiang", "capital": "minor", "population": 1923000.0, "id": 1156170787 }, "geometry": { "type": "Point", "coordinates": [ 121.55, 29.88 ] } },
{ "type": "Feature", "id": 223, "properties": { "city": "Douala", "city_ascii": "Douala", "lat": 4.0604, "lng": 9.71, "country": "Cameroon", "iso2": "CM", "iso3": "CMR", "admin_name": "Littoral", "capital": "admin", "population": 1906000.0, "id": 1120494607 }, "geometry": { "type": "Point", "coordinates": [ 9.71, 4.0604 ] } },
{ "type": "Feature", "id": 224, "properties": { "city": "Tangshan", "city_ascii": "Tangshan", "lat": 39.6243, "lng": 118.1944, "country": "China", "iso2": "CN", "iso3": "CHN", "admin_name": "Hebei", "capital": "", "population": 1879000.0, "id": 1156904299 }, "geometry": { "type": "Point", "coordinates": [ 118.1944, 39.6243 ] } },
{ "type": "Feature", "id": 225, "properties": { "city": "Tainan", "city_ascii": "Tainan", "lat": 23.0, "lng": 120.2, "country": "Taiwan", "iso2": "TW", "iso3": "TWN", "admin_name": "Tainan", "capital": "admin", "population": 1876312.0, "id": 1158061376 }, "geometry": { "type": "Point", "coordinates": [ 120.2, 23.0 ] } },
{ "type": "Feature", "id": 226, "properties": { "city": "Xiping", "city_ascii": "Xiping", "lat": 40.08, "lng": 113.3, "country": "China", "iso2": "CN", "iso3": "CHN", "admin_name": "Shanxi", "capital": "minor", "population": 1873000.0, "id": 1156898522 }, "geometry": { "type": "Point", "coordinates": [ 113.3, 40.08 ] } },
{ "type": "Feature", "id": 227, "properties": { "city": "Asunción", "city_ascii": "Asuncion", "lat": -25.2964, "lng": -57.6415, "country": "Paraguay", "iso2": "PY", "iso3": "PRY", "admin_name": "Asunción", "capital": "primary", "population": 1870000.0, "id": 1600057911 }, "geometry": { "type": "Point", "coordinates": [ -57.6415, -25.2964 ] } },
{ "type": "Feature", "id": 228, "properties": { "city": "Saidu Sharif", "city_ascii": "Saidu Sharif", "lat": 34.75, "lng": 72.35, "country": "Pakistan", "iso2": "PK", "iso3": "PAK", "admin_name": "Khyber Pakhtunkhwa", "capital": "minor", "population": 1860310.0, "id": 1586619596 }, "geometry": { "type": "Point", "coordinates": [ 72.35, 34.75 ] } },
{ "type": "Feature", "id": 229, "properties": { "city": "Brisbane", "city_ascii": "Brisbane", "lat": -27.455, "lng": 153.0351, "country": "Australia", "iso2": "AU", "iso3": "AUS", "admin_name": "Queensland", "capital": "admin", "population": 1860000.0, "id": 1036192929 }, "geometry": { "type": "Point", "coordinates": [ 153.0351, -27.455 ] } },
{ "type": "Feature", "id": 230, "properties": { "city": "Rawalpindi", "city_ascii": "Rawalpindi", "lat": 33.6, "lng": 73.04, "country": "Pakistan", "iso2": "PK", "iso3": "PAK", "admin_name": "Punjab", "capital": "minor", "population": 1858000.0, "id": 1586344001 }, "geometry": { "type": "Point", "coordinates": [ 73.04, 33.6 ] } },
{ "type": "Feature", "id": 231, "properties": { "city": "Sacramento", "city_ascii": "Sacramento", "lat": 38.5667, "lng": -121.4683, "country": "United States", "iso2": "US", "iso3": "USA", "admin_name": "California", "capital": "admin", "population": 1854698.0, "id": 1840021491 }, "geometry": { "type": "Point", "coordinates": [ -121.4683, 38.5667 ] } },
{ "type": "Feature", "id": 232, "properties": { "city": "Beirut", "city_ascii": "Beirut", "lat": 33.872, "lng": 35.5097, "country": "Lebanon", "iso2": "LB", "iso3": "LBN", "admin_name": "Beyrouth", "capital": "primary", "population": 1846000.0, "id": 1422847713 }, "geometry": { "type": "Point", "coordinates": [ 35.5097, 33.872 ] } },
{ "type": "Feature", "id": 233, "properties": { "city": "San Jose", "city_ascii": "San Jose", "lat": 37.3021, "lng": -121.8489, "country": "United States", "iso2": "US", "iso3": "USA", "admin_name": "California", "capital": "", "population": 1821899.0, "id": 1840021570 }, "geometry": { "type": "Point", "coordinates": [ -121.8489, 37.3021 ] } },
{ "type": "Feature", "id": 234, "properties": { "city": "Minsk", "city_ascii": "Minsk", "lat": 53.9, "lng": 27.5666, "country": "Belarus", "iso2": "BY", "iso3": "BLR", "admin_name": "Minsk", "capital": "primary", "population": 1805000.0, "id": 1112348503 }, "geometry": { "type": "Point", "coordinates": [ 27.5666, 53.9 ] } },
{ "type": "Feature", "id": 235, "properties": { "city": "Kyōto", "city_ascii": "Kyoto", "lat": 35.03, "lng": 135.75, "country": "Japan", "iso2": "JP", "iso3": "JPN", "admin_name": "Kyōto", "capital": "admin", "population": 1805000.0, "id": 1392622735 }, "geometry": { "type": "Point", "coordinates": [ 135.75, 35.03 ] } },
{ "type": "Feature", "id": 236, "properties": { "city": "Barranquilla", "city_ascii": "Barranquilla", "lat": 10.96, "lng": -74.8, "country": "Colombia", "iso2": "CO", "iso3": "COL", "admin_name": "Atlántico", "capital": "admin", "population": 1798000.0, "id": 1170179113 }, "geometry": { "type": "Point", "coordinates": [ -74.8, 10.96 ] } },
{ "type": "Feature", "id": 237, "properties": { "city": "Orlando", "city_ascii": "Orlando", "lat": 28.4772, "lng": -81.3369, "country": "United States", "iso2": "US", "iso3": "USA", "admin_name": "Florida", "capital": "", "population": 1776841.0, "id": 1840015099 }, "geometry": { "type": "Point", "coordinates": [ -81.3369, 28.4772 ] } },
{ "type": "Feature", "id": 238, "properties": { "city": "Shuyangzha", "city_ascii": "Shuyangzha", "lat": 34.1299, "lng": 118.7734, "country": "China", "iso2": "CN", "iso3": "CHN", "admin_name": "Jiangsu", "capital": "", "population": 1770000.0, "id": 1156051957 }, "geometry": { "type": "Point", "coordinates": [ 118.7734, 34.1299 ] } },
{ "type": "Feature", "id": 239, "properties": { "city": "Valencia", "city_ascii": "Valencia", "lat": 10.23, "lng": -67.98, "country": "Venezuela", "iso2": "VE", "iso3": "VEN", "admin_name": "Carabobo", "capital": "admin", "population": 1770000.0, "id": 1862309871 }, "geometry": { "type": "Point", "coordinates": [ -67.98, 10.23 ] } },
{ "type": "Feature", "id": 240, "properties": { "city": "Hamburg", "city_ascii": "Hamburg", "lat": 53.55, "lng": 10.0, "country": "Germany", "iso2": "DE", "iso3": "DEU", "admin_name": "Hamburg", "capital": "admin", "population": 1757000.0, "id": 1276041799 }, "geometry": { "type": "Point", "coordinates": [ 10.0, 53.55 ] } },
{ "type": "Feature", "id": 241, "properties": { "city": "Vadodara", "city_ascii": "Vadodara", "lat": 22.31, "lng": 73.18, "country": "India", "iso2": "IN", "iso3": "IND", "admin_name": "Gujarāt", "capital": "", "population": 1756000.0, "id": 1356705249 }, "geometry": { "type": "Point", "coordinates": [ 73.18, 22.31 ] } },
{ "type": "Feature", "id": 242, "properties": { "city": "Manaus", "city_ascii": "Manaus", "lat": -3.1, "lng": -60.0, "country": "Brazil", "iso2": "BR", "iso3": "BRA", "admin_name": "Amazonas", "capital": "admin", "population": 1753000.0, "id": 1076607274 }, "geometry": { "type": "Point", "coordinates": [ -60.0, -3.1 ] } },
{ "type": "Feature", "id": 243, "properties": { "city": "Shangqiu", "city_ascii": "Shangqiu", "lat": 34.4504, "lng": 115.65, "country": "China", "iso2": "CN", "iso3": "CHN", "admin_name": "Henan", "capital": "", "population": 1753000.0, "id": 1156805441 }, "geometry": { "type": "Point", "coordinates": [ 115.65, 34.4504 ] } },
{ "type": "Feature", "id": 244, "properties": { "city": "Wuxi", "city_ascii": "Wuxi", "lat": 31.58, "lng": 120.3, "country": "China", "iso2": "CN", "iso3": "CHN", "admin_name": "Jiangsu", "capital": "minor", "population": 1749000.0, "id": 1156019650 }, "geometry": { "type": "Point", "coordinates": [ 120.3, 31.58 ] } },
{ "type": "Feature", "id": 245, "properties": { "city": "Palembang", "city_ascii": "Palembang", "lat": -2.98, "lng": 104.75, "country": "Indonesia", "iso2": "ID", "iso3": "IDN", "admin_name": "Sumatera Selatan", "capital": "admin", "population": 1749000.0, "id": 1360902897 }, "geometry": { "type": "Point", "coordinates": [ 104.75, -2.98 ] } },
{ "type": "Feature", "id": 246, "properties": { "city": "Brussels", "city_ascii": "Brussels", "lat": 50.8333, "lng": 4.3333, "country": "Belgium", "iso2": "BE", "iso3": "BEL", "admin_name": "Brussels-Capital Region", "capital": "primary", "population": 1743000.0, "id": 1056469830 }, "geometry": { "type": "Point", "coordinates": [ 4.3333, 50.8333 ] } },
{ "type": "Feature", "id": 247, "properties": { "city": "Essen", "city_ascii": "Essen", "lat": 51.45, "lng": 7.0166, "country": "Germany", "iso2": "DE", "iso3": "DEU", "admin_name": "North Rhine-Westphalia", "capital": "minor", "population": 1742135.0, "id": 1276769247 }, "geometry": { "type": "Point", "coordinates": [ 7.0166, 51.45 ] } },
{ "type": "Feature", "id": 248, "properties": { "city": "Cleveland", "city_ascii": "Cleveland", "lat": 41.4767, "lng": -81.6805, "country": "United States", "iso2": "US", "iso3": "USA", "admin_name": "Ohio", "capital": "", "population": 1730363.0, "id": 1840000596 }, "geometry": { "type": "Point", "coordinates": [ -81.6805, 41.4767 ] } },
{ "type": "Feature", "id": 249, "properties": { "city": "Bhopal", "city_ascii": "Bhopal", "lat": 23.25, "lng": 77.41, "country": "India", "iso2": "IN", "iso3": "IND", "admin_name": "Madhya Pradesh", "capital": "admin", "population": 1727000.0, "id": 1356734039 }, "geometry": { "type": "Point", "coordinates": [ 77.41, 23.25 ] } },
{ "type": "Feature", "id": 250, "properties": { "city": "Hohhot", "city_ascii": "Hohhot", "lat": 40.82, "lng": 111.66, "country": "China", "iso2": "CN", "iso3": "CHN", "admin_name": "Inner Mongolia", "capital": "admin", "population": 1726000.0, "id": 1156210167 }, "geometry": { "type": "Point", "coordinates": [ 111.66, 40.82 ] } },
{ "type": "Feature", "id": 251, "properties": { "city": "Pittsburgh", "city_ascii": "Pittsburgh", "lat": 40.4396, "lng": -79.9763, "country": "United States", "iso2": "US", "iso3": "USA", "admin_name": "Pennsylvania", "capital": "", "population": 1715297.0, "id": 1840001254 }, "geometry": { "type": "Point", "coordinates": [ -79.9763, 40.4396 ] } },
{ "type": "Feature", "id": 252, "properties": { "city": "Luoyang", "city_ascii": "Luoyang", "lat": 34.68, "lng": 112.4701, "country": "China", "iso2": "CN", "iso3": "CHN", "admin_name": "Henan", "capital": "", "population": 1715000.0, "id": 1156069315 }, "geometry": { "type": "Point", "coordinates": [ 112.4701, 34.68 ] } },
{ "type": "Feature", "id": 253, "properties": { "city": "Santos", "city_ascii": "Santos", "lat": -23.9537, "lng": -46.3329, "country": "Brazil", "iso2": "BR", "iso3": "BRA", "admin_name": "São Paulo", "capital": "", "population": 1709000.0, "id": 1076033299 }, "geometry": { "type": "Point", "coordinates": [ -46.3329, -23.9537 ] } },
{ "type": "Feature", "id": 254, "properties": { "city": "Jingling", "city_ascii": "Jingling", "lat": 30.6501, "lng": 113.16, "country": "China", "iso2": "CN", "iso3": "CHN", "admin_name": "Hubei", "capital": "", "population": 1708000.0, "id": 1156060544 }, "geometry": { "type": "Point", "coordinates": [ 113.16, 30.6501 ] } },
{ "type": "Feature", "id": 255, "properties": { "city": "Warsaw", "city_ascii": "Warsaw", "lat": 52.25, "lng": 21.0, "country": "Poland", "iso2": "PL", "iso3": "POL", "admin_name": "Mazowieckie", "capital": "primary", "population": 1707000.0, "id": 1616024847 }, "geometry": { "type": "Point", "coordinates": [ 21.0, 52.25 ] } },
{ "type": "Feature", "id": 256, "properties": { "city": "Rabat", "city_ascii": "Rabat", "lat": 34.0253, "lng": -6.8361, "country": "Morocco", "iso2": "MA", "iso3": "MAR", "admin_name": "Rabat-Salé-Kénitra", "capital": "primary", "population": 1705000.0, "id": 1504023252 }, "geometry": { "type": "Point", "coordinates": [ -6.8361, 34.0253 ] } },
{ "type": "Feature", "id": 257, "properties": { "city": "Vitória", "city_ascii": "Vitoria", "lat": -20.324, "lng": -40.366, "country": "Brazil", "iso2": "BR", "iso3": "BRA", "admin_name": "Espírito Santo", "capital": "admin", "population": 1704000.0, "id": 1076376829 }, "geometry": { "type": "Point", "coordinates": [ -40.366, -20.324 ] } },
{ "type": "Feature", "id": 258, "properties": { "city": "Quito", "city_ascii": "Quito", "lat": -0.215, "lng": -78.5001, "country": "Ecuador", "iso2": "EC", "iso3": "ECU", "admin_name": "Pichincha", "capital": "primary", "population": 1701000.0, "id": 1218441993 }, "geometry": { "type": "Point", "coordinates": [ -78.5001, -0.215 ] } },
{ "type": "Feature", "id": 259, "properties": { "city": "Antananarivo", "city_ascii": "Antananarivo", "lat": -18.9166, "lng": 47.5166, "country": "Madagascar", "iso2": "MG", "iso3": "MDG", "admin_name": "Antananarivo", "capital": "primary", "population": 1697000.0, "id": 1450978461 }, "geometry": { "type": "Point", "coordinates": [ 47.5166, -18.9166 ] } },
{ "type": "Feature", "id": 260, "properties": { "city": "Coimbatore", "city_ascii": "Coimbatore", "lat": 11.0, "lng": 76.95, "country": "India", "iso2": "IN", "iso3": "IND", "admin_name": "Tamil Nādu ", "capital": "", "population": 1696000.0, "id": 1356999503 }, "geometry": { "type": "Point", "coordinates": [ 76.95, 11.0 ] } },
{ "type": "Feature", "id": 261, "properties": { "city": "Daqing", "city_ascii": "Daqing", "lat": 46.58, "lng": 125.0, "country": "China", "iso2": "CN", "iso3": "CHN", "admin_name": "Heilongjiang", "capital": "", "population": 1693000.0, "id": 1156403962 }, "geometry": { "type": "Point", "coordinates": [ 125.0, 46.58 ] } },
{ "type": "Feature", "id": 262, "properties": { "city": "Lu’an", "city_ascii": "Lu'an", "lat": 31.7503, "lng": 116.48, "country": "China", "iso2": "CN", "iso3": "CHN", "admin_name": "Anhui", "capital": "minor", "population": 1690000.0, "id": 1156499624 }, "geometry": { "type": "Point", "coordinates": [ 116.48, 31.7503 ] } },
{ "type": "Feature", "id": 263, "properties": { "city": "Sanzhou", "city_ascii": "Sanzhou", "lat": 30.82, "lng": 108.4, "country": "China", "iso2": "CN", "iso3": "CHN", "admin_name": "Chongqing", "capital": "", "population": 1680000.0, "id": 1156025536 }, "geometry": { "type": "Point", "coordinates": [ 108.4, 30.82 ] } },
{ "type": "Feature", "id": 264, "properties": { "city": "Budapest", "city_ascii": "Budapest", "lat": 47.5, "lng": 19.0833, "country": "Hungary", "iso2": "HU", "iso3": "HUN", "admin_name": "Budapest", "capital": "primary", "population": 1679000.0, "id": 1348611435 }, "geometry": { "type": "Point", "coordinates": [ 19.0833, 47.5 ] } },
{ "type": "Feature", "id": 265, "properties": { "city": "Turin", "city_ascii": "Turin", "lat": 45.0704, "lng": 7.67, "country": "Italy", "iso2": "IT", "iso3": "ITA", "admin_name": "Piedmont", "capital": "admin", "population": 1652000.0, "id": 1380244627 }, "geometry": { "type": "Point", "coordinates": [ 7.67, 45.0704 ] } },
{ "type": "Feature", "id": 266, "properties": { "city": "Suzhou", "city_ascii": "Suzhou", "lat": 31.3005, "lng": 120.62, "country": "China", "iso2": "CN", "iso3": "CHN", "admin_name": "Jiangsu", "capital": "minor", "population": 1650000.0, "id": 1156029196 }, "geometry": { "type": "Point", "coordinates": [ 120.62, 31.3005 ] } },
{ "type": "Feature", "id": 267, "properties": { "city": "Ludhiāna", "city_ascii": "Ludhiana", "lat": 30.9278, "lng": 75.8723, "country": "India", "iso2": "IN", "iso3": "IND", "admin_name": "Punjab", "capital": "", "population": 1649000.0, "id": 1356929498 }, "geometry": { "type": "Point", "coordinates": [ 75.8723, 30.9278 ] } },
{ "type": "Feature", "id": 268, "properties": { "city": "Cincinnati", "city_ascii": "Cincinnati", "lat": 39.1412, "lng": -84.506, "country": "United States", "iso2": "US", "iso3": "USA", "admin_name": "Ohio", "capital": "", "population": 1648254.0, "id": 1840003814 }, "geometry": { "type": "Point", "coordinates": [ -84.506, 39.1412 ] } },
{ "type": "Feature", "id": 269, "properties": { "city": "Kumasi", "city_ascii": "Kumasi", "lat": 6.69, "lng": -1.63, "country": "Ghana", "iso2": "GH", "iso3": "GHA", "admin_name": "Ashanti", "capital": "admin", "population": 1646000.0, "id": 1288181103 }, "geometry": { "type": "Point", "coordinates": [ -1.63, 6.69 ] } },
{ "type": "Feature", "id": 270, "properties": { "city": "Manhattan", "city_ascii": "Manhattan", "lat": 40.7834, "lng": -73.9662, "country": "United States", "iso2": "US", "iso3": "USA", "admin_name": "New York", "capital": "", "population": 1643734.0, "id": 1840034000 }, "geometry": { "type": "Point", "coordinates": [ -73.9662, 40.7834 ] } },
{ "type": "Feature", "id": 271, "properties": { "city": "Qiqihar", "city_ascii": "Qiqihar", "lat": 47.345, "lng": 123.99, "country": "China", "iso2": "CN", "iso3": "CHN", "admin_name": "Heilongjiang", "capital": "minor", "population": 1641000.0, "id": 1156775905 }, "geometry": { "type": "Point", "coordinates": [ 123.99, 47.345 ] } },
{ "type": "Feature", "id": 272, "properties": { "city": "Anshan", "city_ascii": "Anshan", "lat": 41.115, "lng": 122.94, "country": "China", "iso2": "CN", "iso3": "CHN", "admin_name": "Liaoning", "capital": "", "population": 1639000.0, "id": 1156901825 }, "geometry": { "type": "Point", "coordinates": [ 122.94, 41.115 ] } },
{ "type": "Feature", "id": 273, "properties": { "city": "Austin", "city_ascii": "Austin", "lat": 30.3006, "lng": -97.7517, "country": "United States", "iso2": "US", "iso3": "USA", "admin_name": "Texas", "capital": "admin", "population": 1638716.0, "id": 1840019590 }, "geometry": { "type": "Point", "coordinates": [ -97.7517, 30.3006 ] } },
{ "type": "Feature", "id": 274, "properties": { "city": "Zhongli", "city_ascii": "Zhongli", "lat": 24.965, "lng": 121.2168, "country": "Taiwan", "iso2": "TW", "iso3": "TWN", "admin_name": "Taoyuan", "capital": "", "population": 1632616.0, "id": 1158025380 }, "geometry": { "type": "Point", "coordinates": [ 121.2168, 24.965 ] } },
{ "type": "Feature", "id": 275, "properties": { "city": "Handan", "city_ascii": "Handan", "lat": 36.58, "lng": 114.48, "country": "China", "iso2": "CN", "iso3": "CHN", "admin_name": "Hebei", "capital": "", "population": 1631000.0, "id": 1156957080 }, "geometry": { "type": "Point", "coordinates": [ 114.48, 36.58 ] } },
{ "type": "Feature", "id": 276, "properties": { "city": "Tai’an", "city_ascii": "Tai'an", "lat": 36.2, "lng": 117.1201, "country": "China", "iso2": "CN", "iso3": "CHN", "admin_name": "Shandong", "capital": "", "population": 1629000.0, "id": 1156095188 }, "geometry": { "type": "Point", "coordinates": [ 117.1201, 36.2 ] } },
{ "type": "Feature", "id": 277, "properties": { "city": "Eşfahān", "city_ascii": "Esfahan", "lat": 32.7, "lng": 51.7, "country": "Iran", "iso2": "IR", "iso3": "IRN", "admin_name": "Eşfahān", "capital": "admin", "population": 1628000.0, "id": 1364023865 }, "geometry": { "type": "Point", "coordinates": [ 51.7, 32.7 ] } },
{ "type": "Feature", "id": 278, "properties": { "city": "Kansas City", "city_ascii": "Kansas City", "lat": 39.1239, "lng": -94.5541, "country": "United States", "iso2": "US", "iso3": "USA", "admin_name": "Missouri", "capital": "", "population": 1615621.0, "id": 1840008535 }, "geometry": { "type": "Point", "coordinates": [ -94.5541, 39.1239 ] } },
{ "type": "Feature", "id": 279, "properties": { "city": "Yaoundé", "city_ascii": "Yaounde", "lat": 3.8667, "lng": 11.5167, "country": "Cameroon", "iso2": "CM", "iso3": "CMR", "admin_name": "Centre", "capital": "primary", "population": 1611000.0, "id": 1120298240 }, "geometry": { "type": "Point", "coordinates": [ 11.5167, 3.8667 ] } },
{ "type": "Feature", "id": 280, "properties": { "city": "Shantou", "city_ascii": "Shantou", "lat": 23.37, "lng": 116.67, "country": "China", "iso2": "CN", "iso3": "CHN", "admin_name": "Guangdong", "capital": "minor", "population": 1601000.0, "id": 1156457499 }, "geometry": { "type": "Point", "coordinates": [ 116.67, 23.37 ] } },
{ "type": "Feature", "id": 281, "properties": { "city": "Āgra", "city_ascii": "Agra", "lat": 27.1704, "lng": 78.015, "country": "India", "iso2": "IN", "iso3": "IND", "admin_name": "Uttar Pradesh", "capital": "", "population": 1592000.0, "id": 1356187395 }, "geometry": { "type": "Point", "coordinates": [ 78.015, 27.1704 ] } },
{ "type": "Feature", "id": 282, "properties": { "city": "Zhanjiang", "city_ascii": "Zhanjiang", "lat": 21.2, "lng": 110.38, "country": "China", "iso2": "CN", "iso3": "CHN", "admin_name": "Guangdong", "capital": "minor", "population": 1590000.0, "id": 1156502170 }, "geometry": { "type": "Point", "coordinates": [ 110.38, 21.2 ] } },
{ "type": "Feature", "id": 283, "properties": { "city": "La Paz", "city_ascii": "La Paz", "lat": -16.498, "lng": -68.15, "country": "Bolivia", "iso2": "BO", "iso3": "BOL", "admin_name": "La Paz", "capital": "primary", "population": 1590000.0, "id": 1068000064 }, "geometry": { "type": "Point", "coordinates": [ -68.15, -16.498 ] } },
{ "type": "Feature", "id": 284, "properties": { "city": "Kalyān", "city_ascii": "Kalyan", "lat": 19.2502, "lng": 73.1602, "country": "India", "iso2": "IN", "iso3": "IND", "admin_name": "Mahārāshtra", "capital": "", "population": 1576614.0, "id": 1356172246 }, "geometry": { "type": "Point", "coordinates": [ 73.1602, 19.2502 ] } },
{ "type": "Feature", "id": 285, "properties": { "city": "Abuja", "city_ascii": "Abuja", "lat": 9.0833, "lng": 7.5333, "country": "Nigeria", "iso2": "NG", "iso3": "NGA", "admin_name": "Federal Capital Territory", "capital": "primary", "population": 1576000.0, "id": 1566342270 }, "geometry": { "type": "Point", "coordinates": [ 7.5333, 9.0833 ] } },
{ "type": "Feature", "id": 286, "properties": { "city": "Harare", "city_ascii": "Harare", "lat": -17.8178, "lng": 31.0447, "country": "Zimbabwe", "iso2": "ZW", "iso3": "ZWE", "admin_name": "Harare", "capital": "primary", "population": 1572000.0, "id": 1716196799 }, "geometry": { "type": "Point", "coordinates": [ 31.0447, -17.8178 ] } },
{ "type": "Feature", "id": 287, "properties": { "city": "Indianapolis", "city_ascii": "Indianapolis", "lat": 39.7771, "lng": -86.1458, "country": "United States", "iso2": "US", "iso3": "USA", "admin_name": "Indiana", "capital": "admin", "population": 1564699.0, "id": 1840030084 }, "geometry": { "type": "Point", "coordinates": [ -86.1458, 39.7771 ] } },
{ "type": "Feature", "id": 288, "properties": { "city": "Xiantao", "city_ascii": "Xiantao", "lat": 30.3704, "lng": 113.44, "country": "China", "iso2": "CN", "iso3": "CHN", "admin_name": "Hubei", "capital": "", "population": 1556000.0, "id": 1156216927 }, "geometry": { "type": "Point", "coordinates": [ 113.44, 30.3704 ] } },
{ "type": "Feature", "id": 289, "properties": { "city": "Khulna", "city_ascii": "Khulna", "lat": 22.84, "lng": 89.56, "country": "Bangladesh", "iso2": "BD", "iso3": "BGD", "admin_name": "Khulna", "capital": "admin", "population": 1553000.0, "id": 1050667339 }, "geometry": { "type": "Point", "coordinates": [ 89.56, 22.84 ] } },
{ "type": "Feature", "id": 290, "properties": { "city": "Weifang", "city_ascii": "Weifang", "lat": 36.7204, "lng": 119.1001, "country": "China", "iso2": "CN", "iso3": "CHN", "admin_name": "Shandong", "capital": "", "population": 1553000.0, "id": 1156912965 }, "geometry": { "type": "Point", "coordinates": [ 119.1001, 36.7204 ] } },
{ "type": "Feature", "id": 291, "properties": { "city": "Tijuana", "city_ascii": "Tijuana", "lat": 32.5, "lng": -117.08, "country": "Mexico", "iso2": "MX", "iso3": "MEX", "admin_name": "Baja California", "capital": "minor", "population": 1553000.0, "id": 1484708778 }, "geometry": { "type": "Point", "coordinates": [ -117.08, 32.5 ] } },
{ "type": "Feature", "id": 292, "properties": { "city": "Santiago", "city_ascii": "Santiago", "lat": 19.5, "lng": -70.67, "country": "Dominican Republic", "iso2": "DO", "iso3": "DOM", "admin_name": "Cibao Norte", "capital": "admin", "population": 1550753.0, "id": 1214985348 }, "geometry": { "type": "Point", "coordinates": [ -70.67, 19.5 ] } },
{ "type": "Feature", "id": 293, "properties": { "city": "Xinyang", "city_ascii": "Xinyang", "lat": 32.1304, "lng": 114.07, "country": "China", "iso2": "CN", "iso3": "CHN", "admin_name": "Henan", "capital": "", "population": 1541000.0, "id": 1156273453 }, "geometry": { "type": "Point", "coordinates": [ 114.07, 32.1304 ] } },
{ "type": "Feature", "id": 294, "properties": { "city": "Luzhou", "city_ascii": "Luzhou", "lat": 28.88, "lng": 105.38, "country": "China", "iso2": "CN", "iso3": "CHN", "admin_name": "Sichuan", "capital": "minor", "population": 1537000.0, "id": 1156582079 }, "geometry": { "type": "Point", "coordinates": [ 105.38, 28.88 ] } },
{ "type": "Feature", "id": 295, "properties": { "city": "Perth", "city_ascii": "Perth", "lat": -31.955, "lng": 115.84, "country": "Australia", "iso2": "AU", "iso3": "AUS", "admin_name": "Western Australia", "capital": "admin", "population": 1532000.0, "id": 1036178956 }, "geometry": { "type": "Point", "coordinates": [ 115.84, -31.955 ] } },
{ "type": "Feature", "id": 296, "properties": { "city": "Toluca", "city_ascii": "Toluca", "lat": 19.3304, "lng": -99.67, "country": "Mexico", "iso2": "MX", "iso3": "MEX", "admin_name": "México", "capital": "admin", "population": 1531000.0, "id": 1484124846 }, "geometry": { "type": "Point", "coordinates": [ -99.67, 19.3304 ] } },
{ "type": "Feature", "id": 297, "properties": { "city": "Vishākhapatnam", "city_ascii": "Vishakhapatnam", "lat": 17.73, "lng": 83.305, "country": "India", "iso2": "IN", "iso3": "IND", "admin_name": "Andhra Pradesh", "capital": "", "population": 1529000.0, "id": 1356692563 }, "geometry": { "type": "Point", "coordinates": [ 83.305, 17.73 ] } },